gtfsId,name,lat,lon,location,zoneId,mode,duration,walk_distance
HSL:6150219,Louhosmäki,60.202282,24.358088,"60.202282, 24.358088",D,BUS,65.0,465.0
HSL:6150218,Solvik,60.201517,24.375928,"60.201517, 24.375928",D,BUS,63.0,466.0
HSL:6150217,Evitskog,60.20141,24.342,"60.20141, 24.342",D,BUS,67.0,556.0
HSL:6150216,Evitskogin VPK,60.20103,24.33853,"60.20103, 24.33853",D,BUS,66.0,483.0
HSL:6150215,Evitskogin VPK,60.200862,24.338385,"60.200862, 24.338385",D,BUS,66.0,465.0
HSL:1465177,Vanha viertotie,60.213022,24.879553,"60.213022, 24.879553",B,BUS,29.0,463.0
HSL:6150225,Karhusuontie,60.212742,24.341698,"60.212742, 24.341698",D,BUS,71.0,585.0
HSL:2312219,Kalastajankuja,60.15334,24.72924,"60.15334, 24.72924",B,BUS,42.0,1555.0
HSL:6150224,Karhusuontie,60.211693,24.341255,"60.211693, 24.341255",D,BUS,69.0,465.0
HSL:6150223,Åkervikintie,60.202485,24.392585,"60.202485, 24.392585",D,BUS,94.0,582.0
HSL:2222234,Aalto-yliopisto (M),60.183559,24.82768,"60.183559, 24.82768",B,BUS,20.0,587.0
HSL:6150222,Solvik,60.202258,24.374953,"60.202258, 24.374953",D,BUS,64.0,579.0
HSL:6150221,Louhosmäki,60.20219,24.35642,"60.20219, 24.35642",D,BUS,66.0,556.0
HSL:6150220,Åkervikintie,60.20238,24.394094,"60.20238, 24.394094",D,BUS,95.0,668.0
HSL:1310602,Lauttasaari,60.159443,24.8785,"60.159443, 24.8785",A,SUBWAY,11.0,348.0
HSL:1310601,Lauttasaari,60.159362,24.87857,"60.159362, 24.87857",A,SUBWAY,9.0,225.0
HSL:1310604,Koivusaari,60.163618,24.853666,"60.163618, 24.853666",A,SUBWAY,12.0,312.0
HSL:1310603,Koivusaari,60.163538,24.85361,"60.163538, 24.85361",A,SUBWAY,11.0,225.0
HSL:2312216,Nuottalahti,60.15117,24.73608,"60.15117, 24.73608",B,BUS,39.0,641.0
HSL:2312217,Nuottalahti,60.15029,24.73707,"60.15029, 24.73707",B,BUS,38.0,622.0
HSL:2312218,Kalastajankuja,60.15421,24.72872,"60.15421, 24.72872",B,BUS,37.0,794.0
HSL:1453189,Itäkeskus (M),60.20987,25.07621,"60.20987, 25.07621",B,BUS,19.0,324.0
HSL:6150229,Stenbackantie,60.220405,24.356558,"60.220405, 24.356558",D,BUS,71.0,465.0
HSL:6150228,Stenbackantie,60.220365,24.357035,"60.220365, 24.357035",D,BUS,71.0,489.0
HSL:6150227,Sandsdal,60.21642,24.345717,"60.21642, 24.345717",D,BUS,70.0,465.0
HSL:6150226,Sandsdal,60.216378,24.345947,"60.216378, 24.345947",D,BUS,70.0,472.0
HSL:6150236,Solvik,60.202072,24.376857,"60.202072, 24.376857",D,BUS,65.0,594.0
HSL:6150232,Sannas,60.226347,24.37974,"60.226347, 24.37974",D,BUS,75.0,502.0
HSL:6150231,Haapaniementie,60.225908,24.369537,"60.225908, 24.369537",D,BUS,73.0,465.0
HSL:6150230,Haapaniementie,60.225655,24.369032,"60.225655, 24.369032",D,BUS,73.0,502.0
HSL:2312201,Kalatorppa,60.157855,24.725891,"60.157855, 24.725891",B,BUS,35.0,643.0
HSL:1453181,Puotinharju,60.21211,25.08187,"60.21211, 25.08187",B,BUS,23.0,590.0
HSL:1453182,Itäkeskus (M),60.21003,25.0768,"60.21003, 25.0768",B,BUS,19.0,287.0
HSL:2312202,Kalaonni,60.156464,24.725221,"60.156464, 24.725221",B,BUS,35.0,620.0
HSL:2312203,Tiistiläntörmä,60.157065,24.737421,"60.157065, 24.737421",B,BUS,31.0,797.0
HSL:1453184,Itäkeskus (M),60.20952,25.07627,"60.20952, 25.07627",B,BUS,20.0,338.0
HSL:2312205,Tiistilänkaari,60.153906,24.740077,"60.153906, 24.740077",B,BUS,37.0,1187.0
HSL:1453185,Metrovarikko,60.20982,25.06637,"60.20982, 25.06637",B,BUS,25.0,398.0
HSL:1453186,Itäkeskus (M),60.20964,25.07681,"60.20964, 25.07681",B,BUS,19.0,306.0
HSL:2312206,Tiistilänkuja,60.15425,24.73606,"60.15425, 24.73606",B,BUS,38.0,1255.0
HSL:6150239,Sannaksentie,60.225725,24.37596,"60.225725, 24.37596",D,BUS,74.0,465.0
HSL:6150237,Lillängintie,60.222042,24.36192,"60.222042, 24.36192",D,BUS,72.0,465.0
HSL:6150241,Sannaksentie,60.225717,24.376338,"60.225717, 24.376338",D,BUS,74.0,485.0
HSL:6150240,Lillängintie,60.221885,24.362633,"60.221885, 24.362633",D,BUS,73.0,506.0
HSL:1465148,Valimo,60.22054,24.87679,"60.22054, 24.87679",B,BUS,20.0,556.0
HSL:1465147,Valimotie 15,60.21922,24.87837,"60.21922, 24.87837",B,BUS,22.0,714.0
HSL:1465146,Valimotie 15,60.21857,24.87877,"60.21857, 24.87877",B,BUS,23.0,804.0
HSL:1465145,Valimotie,60.21562,24.87617,"60.21562, 24.87617",B,BUS,27.0,281.0
HSL:2222268,Tietäjä,60.18712,24.80903,"60.18712, 24.80903",B,BUS,32.0,1391.0
HSL:2222201,Otaniemensilta,60.18023,24.8376,"60.18023, 24.8376",B,BUS,26.0,1127.0
HSL:2222203,Otaranta,60.18025,24.834535,"60.18025, 24.834535",B,BUS,25.0,1047.0
HSL:2222202,Otaniemensilta,60.1798,24.83641,"60.1798, 24.83641",B,BUS,25.0,1011.0
HSL:2222205,Hanasaari,60.16646,24.84158,"60.16646, 24.84158",B,BUS,23.0,1059.0
HSL:2222204,Otaranta,60.180604,24.834109,"60.180604, 24.834109",B,BUS,26.0,1114.0
HSL:2222207,Sähkömies,60.18909,24.82975,"60.18909, 24.82975",B,BUS,25.0,948.0
HSL:2222206,Otakaari,60.18701,24.82762,"60.18701, 24.82762",B,BUS,22.0,691.0
HSL:2222209,Teekkarikylä,60.18833,24.83492,"60.18833, 24.83492",B,BUS,28.0,1169.0
HSL:2222208,Teekkarikylä,60.18862,24.83449,"60.18862, 24.83449",B,BUS,28.0,1179.0
HSL:1285159,Käpytie,60.22592,24.96789,"60.22592, 24.96789",B,BUS,19.0,708.0
HSL:1285158,Käpytie,60.22632,24.96805,"60.22632, 24.96805",B,BUS,19.0,660.0
HSL:2222210,Teekkarikylä,60.187376,24.833901,"60.187376, 24.833901",B,BUS,26.0,1027.0
HSL:6150202,Östermalmintie,60.187337,24.298318,"60.187337, 24.298318",D,BUS,138.0,622.0
HSL:6150201,Östermalmintie,60.187197,24.296388,"60.187197, 24.296388",D,BUS,137.0,514.0
HSL:2222212,Aalto-yliopisto (M),60.183685,24.828116,"60.183685, 24.828116",B,BUS,20.0,597.0
HSL:2222214,Tekniikantie,60.1807,24.82479,"60.1807, 24.82479",B,BUS,26.0,999.0
HSL:2222213,Otakaari,60.187099,24.827559,"60.187099, 24.827559",B,BUS,22.0,706.0
HSL:2222216,Vuorimies,60.18244,24.82595,"60.18244, 24.82595",B,BUS,22.0,743.0
HSL:2222215,Vuorimies,60.18236,24.82545,"60.18236, 24.82545",B,BUS,22.0,765.0
HSL:6150208,Eskilsintie,60.196836,24.327098,"60.196836, 24.327098",D,BUS,77.0,1287.0
HSL:6150206,Näckels,60.19449,24.321,"60.19449, 24.321",D,BUS,83.0,1716.0
HSL:6150204,Erikaksentie,60.192708,24.315541,"60.192708, 24.315541",D,BUS,88.0,2078.0
HSL:6150214,Evitskog,60.200958,24.340765,"60.200958, 24.340765",D,BUS,66.0,469.0
HSL:6150212,Bakträsk,60.19921,24.37971,"60.19921, 24.37971",D,BUS,63.0,465.0
HSL:2222223,Tietotie,60.184969,24.819846,"60.184969, 24.819846",B,BUS,20.0,552.0
HSL:6150211,Bakträsk,60.19985,24.378615,"60.19985, 24.378615",D,BUS,64.0,556.0
HSL:2222225,Innopoli,60.185777,24.81338,"60.185777, 24.81338",B,BUS,26.0,1006.0
HSL:6150210,Övidsborg,60.199288,24.335718,"60.199288, 24.335718",D,BUS,70.0,739.0
HSL:2222224,Tietotie,60.18517,24.82042,"60.18517, 24.82042",B,BUS,20.0,526.0
HSL:2222227,Sähkömies,60.18963,24.82959,"60.18963, 24.82959",B,BUS,26.0,1017.0
HSL:2222226,Innopoli,60.185,24.81447,"60.185, 24.81447",B,BUS,25.0,913.0
HSL:1453111,Rantakartanontie,60.21633,25.09587,"60.21633, 25.09587",B,BUS,27.0,684.0
HSL:1453112,Itäkeskus (M),60.210188,25.077359,"60.210188, 25.077359",B,BUS,19.0,307.0
HSL:1453113,Orvokkitie,60.217232,25.089587,"60.217232, 25.089587",B,BUS,26.0,645.0
HSL:1453114,Itäkeskus (M),60.21033,25.07785,"60.21033, 25.07785",B,BUS,20.0,330.0
HSL:1453116,Itäkeskus (M),60.21035,25.07629,"60.21035, 25.07629",B,BUS,22.0,439.0
HSL:1453117,Puotinharju,60.21156,25.08114,"60.21156, 25.08114",B,BUS,22.0,518.0
HSL:1453118,Puotinharju,60.21144,25.079953,"60.21144, 25.079953",B,BUS,22.0,485.0
HSL:1453119,Vanhanlinnantie,60.21466,25.08826,"60.21466, 25.08826",B,BUS,25.0,548.0
HSL:1453110,Arhotie,60.21752,25.08351,"60.21752, 25.08351",B,BUS,26.0,323.0
HSL:6300021,Riihisuontie,60.173292,24.101885,"60.173292, 24.101885",D,BUS,71.0,759.0
HSL:1285164,Aidasmäki,60.22964,24.97434,"60.22964, 24.97434",B,BUS,22.0,904.0
HSL:1285163,Veräjänkorva,60.22675,24.97256,"60.22675, 24.97256",B,BUS,22.0,902.0
HSL:6300022,Riihisuontie,60.173231,24.100927,"60.173231, 24.100927",D,BUS,72.0,807.0
HSL:1285166,Myllypellontie,60.233395,24.978526,"60.233395, 24.978526",B,BUS,29.0,1391.0
HSL:1453103,Orvokkitie,60.217003,25.089523,"60.217003, 25.089523",B,BUS,25.0,638.0
HSL:6300020,Nysvidja,60.181059,24.018075,"60.181059, 24.018075",D,BUS,77.0,772.0
HSL:1285165,Aidasmäki,60.22927,24.9736,"60.22927, 24.9736",B,BUS,21.0,837.0
HSL:1453104,Itäkeskus (M),60.21008,25.0766,"60.21008, 25.0766",B,BUS,19.0,304.0
HSL:6300025,Storpotten,60.172955,24.128346,"60.172955, 24.128346",D,BUS,69.0,767.0
HSL:6300026,Storpotten,60.173247,24.126355,"60.173247, 24.126355",D,BUS,71.0,876.0
HSL:1453105,Ratasmyllyntie,60.20879,25.06718,"60.20879, 25.06718",B,BUS,28.0,897.0
HSL:1453106,Ratasmyllyntie,60.20887,25.06699,"60.20887, 25.06699",B,BUS,28.0,906.0
HSL:6300023,Solbacka,60.175065,24.138551,"60.175065, 24.138551",D,BUS,70.0,895.0
HSL:6300024,Solbacka,60.175433,24.14095,"60.175433, 24.14095",D,BUS,69.0,785.0
HSL:1453107,Puotila (M),60.21557,25.09193,"60.21557, 25.09193",B,BUS,23.0,467.0
HSL:1453109,Arhotie,60.21775,25.08378,"60.21775, 25.08378",B,BUS,28.0,464.0
HSL:6300027,Storäng,60.181438,24.040825,"60.181438, 24.040825",D,BUS,75.0,788.0
HSL:6300028,Storäng,60.181145,24.041526,"60.181145, 24.041526",D,BUS,75.0,769.0
HSL:1285160,Kirkkoherrantie,60.22494,24.97197,"60.22494, 24.97197",B,BUS,23.0,973.0
HSL:1285162,Veräjänkorva,60.22654,24.9729,"60.22654, 24.9729",B,BUS,22.0,937.0
HSL:1285161,Kirkkoherrantie,60.22493,24.97096,"60.22493, 24.97096",B,BUS,23.0,982.0
HSL:6300010,Hollstens,60.174555,24.093479,"60.174555, 24.093479",D,BUS,71.0,784.0
HSL:6300011,Hollstens,60.176005,24.091042,"60.176005, 24.091042",D,BUS,74.0,969.0
HSL:6300014,Lappers,60.173985,24.109245,"60.173985, 24.109245",D,BUS,70.0,770.0
HSL:6300015,Lappers,60.173856,24.107636,"60.173856, 24.107636",D,BUS,71.0,851.0
HSL:6300012,Kokkila th,60.182912,24.031501,"60.182912, 24.031501",D,BUS,76.0,756.0
HSL:6300013,Kokkila th,60.182677,24.02952,"60.182677, 24.02952",D,BUS,77.0,864.0
HSL:2411601,Espoonlahti,60.150075,24.653288,"60.150075, 24.653288",C,SUBWAY,34.0,431.0
HSL:6300018,Myransintie,60.176004,24.062917,"60.176004, 24.062917",D,BUS,74.0,761.0
HSL:6300019,Myransintie,60.176033,24.061181,"60.176033, 24.061181",D,BUS,75.0,844.0
HSL:6300016,Lillkråkas,60.176563,24.076933,"60.176563, 24.076933",D,BUS,73.0,762.0
HSL:2411602,Espoonlahti,60.150081,24.653341,"60.150081, 24.653341",C,SUBWAY,33.0,344.0
HSL:6300017,Lillkråkas,60.176911,24.078211,"60.176911, 24.078211",D,BUS,74.0,838.0
HSL:6300007,Bocksintie,60.178962,24.04697,"60.178962, 24.04697",D,BUS,77.0,904.0
HSL:6300008,Flytintie,60.174069,24.118695,"60.174069, 24.118695",D,BUS,94.0,482.0
HSL:6300006,Bocksintie,60.178044,24.049176,"60.178044, 24.049176",D,BUS,75.0,765.0
HSL:6300009,Flytintie,60.173839,24.120039,"60.173839, 24.120039",D,BUS,69.0,766.0
HSL:1140436,Ooppera,60.18228,24.92659,"60.18228, 24.92659",A,TRAM,11.0,333.0
HSL:1140439,Töölön halli,60.18486,24.92255,"60.18486, 24.92255",A,TRAM,12.0,263.0
HSL:1140437,Ooppera,60.18199,24.92695,"60.18199, 24.92695",A,TRAM,10.0,267.0
HSL:1285184,Kestikuja,60.23169,24.97747,"60.23169, 24.97747",B,BUS,26.0,1184.0
HSL:1140438,Töölön halli,60.18575,24.9213,"60.18575, 24.9213",A,TRAM,13.0,483.0
HSL:1285183,Kestikuja,60.23209,24.97778,"60.23209, 24.97778",B,BUS,27.0,1227.0
HSL:1453155,Myllypuron jäähalli,60.21265,25.06767,"60.21265, 25.06767",B,BUS,27.0,366.0
HSL:1465136,Atomitie,60.224364,24.86717,"60.224364, 24.86717",B,BUS,24.0,815.0
HSL:1465134,Meijeritie,60.2258,24.8696,"60.2258, 24.8696",B,BUS,26.0,969.0
HSL:1465133,Meijeritie,60.22509,24.86806,"60.22509, 24.86806",B,BUS,27.0,976.0
HSL:1465131,Marttila,60.22716,24.87217,"60.22716, 24.87217",B,BUS,28.0,1137.0
HSL:1140440,Kansaneläkelaitos,60.18868,24.91911,"60.18868, 24.91911",A,TRAM,15.0,418.0
HSL:1140441,Kansaneläkelaitos,60.18733,24.91918,"60.18733, 24.91918",A,TRAM,13.0,274.0
HSL:1140446,Kansaneläkelaitos,60.18874,24.91779,"60.18874, 24.91779",A,TRAM,13.0,244.0
HSL:1140447,Töölöntori,60.17971,24.92371,"60.17971, 24.92371",A,TRAM,13.0,312.0
HSL:1453151,Kauppamyllyntie,60.215647,25.063805,"60.215647, 25.063805",B,BUS,28.0,291.0
HSL:1453152,Kauppamyllyntie,60.215986,25.061914,"60.215986, 25.061914",B,BUS,31.0,634.0
HSL:1453154,Myllypuron jäähalli,60.21346,25.06794,"60.21346, 25.06794",B,BUS,28.0,394.0
HSL:1140449,Töölöntori,60.17956,24.92358,"60.17956, 24.92358",A,TRAM,13.0,263.0
HSL:1050401,Eiran sairaala,60.15802,24.939833,"60.15802, 24.939833",A,TRAM,12.0,157.0
HSL:1140450,Ooppera,60.18205,24.92821,"60.18205, 24.92821",A,TRAM,11.0,364.0
HSL:1543181,Eteläreimarintie,60.2103,25.17386,"60.2103, 25.17386",B,BUS,40.0,432.0
HSL:1140453,Kaupunginpuutarha,60.184192,24.931828,"60.184192, 24.931828",A,TRAM,16.0,267.0
HSL:1140451,Ooppera,60.18195,24.92785,"60.18195, 24.92785",A,TRAM,11.0,332.0
HSL:1140452,Kaupunginpuutarha,60.18445,24.93198,"60.18445, 24.93198",A,TRAM,16.0,305.0
HSL:1453134,Puotila (M),60.214621,25.091693,"60.214621, 25.091693",B,BUS,22.0,383.0
HSL:1453138,Puotila (M),60.21533,25.09017,"60.21533, 25.09017",B,BUS,23.0,469.0
HSL:4660294,Kanerva,60.28773,25.073433,"60.28773, 25.073433",C,BUS,39.0,361.0
HSL:4660296,Sammaltie,60.28518,25.06884,"60.28518, 25.06884",C,BUS,41.0,775.0
HSL:4660298,Kunnaantie,60.29531,25.06689,"60.29531, 25.06689",C,BUS,38.0,253.0
HSL:4660297,Kanerva,60.2872,25.072,"60.2872, 25.072",C,BUS,37.0,256.0
HSL:4660299,Kunnaantie,60.29509,25.06703,"60.29509, 25.06703",C,BUS,38.0,1739.0
HSL:1465112,Takkatie,60.22245,24.86279,"60.22245, 24.86279",B,BUS,22.0,586.0
HSL:1453130,Itäkeskus (M),60.20975,25.07745,"60.20975, 25.07745",B,BUS,19.0,308.0
HSL:1453132,Itäkeskus (M),60.20987,25.077978,"60.20987, 25.077978",B,BUS,20.0,336.0
HSL:1453122,Korsholmantie,60.21348,25.08321,"60.21348, 25.08321",B,BUS,26.0,780.0
HSL:1453123,Arhotie,60.218471,25.086067,"60.218471, 25.086067",B,BUS,30.0,949.0
HSL:1453125,Nyytorpinpolku,60.218642,25.093242,"60.218642, 25.093242",B,BUS,31.0,970.0
HSL:1453126,Itäkeskus (M),60.20942,25.07634,"60.20942, 25.07634",B,BUS,20.0,354.0
HSL:1453127,Metrovarikko,60.20922,25.06617,"60.20922, 25.06617",B,BUS,25.0,378.0
HSL:1453128,Itäkeskus (M),60.20956,25.07691,"60.20956, 25.07691",B,BUS,19.0,319.0
HSL:1465106,Takomokuja,60.220715,24.876686,"60.220715, 24.876686",B,BUS,19.0,524.0
HSL:1465105,Talin siirt.puutarha,60.21991,24.86304,"60.21991, 24.86304",B,BUS,25.0,853.0
HSL:1465104,Takomotie,60.2169,24.870409,"60.2169, 24.870409",B,BUS,26.0,165.0
HSL:1465103,Takomotie,60.217728,24.868924,"60.217728, 24.868924",B,BUS,28.0,305.0
HSL:1465102,Valimotie,60.214917,24.876463,"60.214917, 24.876463",B,BUS,26.0,260.0
HSL:1465101,Valimotie,60.21577,24.87493,"60.21577, 24.87493",B,BUS,27.0,323.0
HSL:1465100,Henrikintie,60.224845,24.850474,"60.224845, 24.850474",B,BUS,27.0,1004.0
HSL:1453120,Vanhanlinnantie,60.21479,25.0882,"60.21479, 25.0882",B,BUS,25.0,558.0
HSL:1453121,Vanhanlinnantie,60.21472,25.08581,"60.21472, 25.08581",B,BUS,27.0,734.0
HSL:1050432,Hietalahdentori,60.162237,24.931177,"60.162237, 24.931177",A,TRAM,9.0,23.0
HSL:9512006,Laurila,60.490989,25.096663,"60.490989, 25.096663",D,BUS,52.0,804.0
HSL:9512005,Vähänummentie,60.496901,25.092005,"60.496901, 25.092005",D,BUS,49.0,406.0
HSL:2614237,Soliseva,60.19468,24.68226,"60.19468, 24.68226",C,BUS,51.0,1986.0
HSL:9512002,Peltola,60.493273,25.091476,"60.493273, 25.091476",D,BUS,61.0,2001.0
HSL:9512001,Mittarikatu,60.490279,25.091075,"60.490279, 25.091075",D,BUS,47.0,392.0
HSL:9512004,Hölkkäpolku,60.497842,25.091761,"60.497842, 25.091761",D,BUS,49.0,409.0
HSL:9512003,Anttila,60.494203,25.091896,"60.494203, 25.091896",D,BUS,62.0,2106.0
HSL:9512000,Mittarikatu,60.489363,25.091271,"60.489363, 25.091271",D,BUS,45.0,297.0
HSL:9512017,Haarajoen koulu,60.498144,25.144881,"60.498144, 25.144881",D,BUS,45.0,1060.0
HSL:2614245,Riimukallio,60.19405,24.67816,"60.19405, 24.67816",C,BUS,46.0,645.0
HSL:9640210,Vetikontie,60.450335,24.976263,"60.450335, 24.976263",D,BUS,65.0,279.0
HSL:9640211,Vuohikkaanoja,60.434771,24.986197,"60.434771, 24.986197",D,BUS,65.0,1000.0
HSL:9512016,Haarajoen koulu,60.49822,25.14501,"60.49822, 25.14501",D,BUS,45.0,1071.0
HSL:2614246,Soliseva,60.19475,24.68208,"60.19475, 24.68208",C,BUS,51.0,1982.0
HSL:9640212,Terrisuo,60.478545,24.952268,"60.478545, 24.952268",D,BUS,83.0,1809.0
HSL:9512019,Lehmustie,60.503475,25.155013,"60.503475, 25.155013",D,BUS,52.0,702.0
HSL:9512018,Lehmustie,60.50379,25.15572,"60.50379, 25.15572",D,BUS,53.0,770.0
HSL:9640213,Terrisuo,60.478653,24.951777,"60.478653, 24.951777",D,BUS,83.0,1840.0
HSL:9512012,Haarajoen asemakatu,60.500255,25.132463,"60.500255, 25.132463",D,BUS,40.0,639.0
HSL:9512015,Koivutie,60.498019,25.142575,"60.498019, 25.142575",D,BUS,43.0,872.0
HSL:9512014,Koivutie,60.49876,25.1407,"60.49876, 25.1407",D,BUS,41.0,759.0
HSL:9640207,Tienhaara,60.441703,24.975813,"60.441703, 24.975813",D,BUS,66.0,963.0
HSL:9640208,Tienhaara,60.442609,24.974444,"60.442609, 24.974444",D,BUS,67.0,1024.0
HSL:9640209,Vetikko,60.451385,24.97701,"60.451385, 24.97701",D,BUS,66.0,885.0
HSL:1250501,Käpylä,60.220358,24.946913,"60.220358, 24.946913",A,RAIL,17.0,636.0
HSL:9640203,Metsämaa,60.44679,24.973925,"60.44679, 24.973925",D,BUS,66.0,885.0
HSL:1351107,Raiviontie,60.24962,24.94126,"60.24962, 24.94126",B,BUS,41.0,334.0
HSL:1050412,Viiskulma,60.16089,24.94178,"60.16089, 24.94178",A,TRAM,9.0,79.0
HSL:9640204,Suotorppa,60.457873,24.984671,"60.457873, 24.984671",D,BUS,66.0,449.0
HSL:1351108,Raiviontie,60.24969,24.94116,"60.24969, 24.94116",B,BUS,41.0,345.0
HSL:1351105,Kaskenpolttajantie,60.24935,24.93492,"60.24935, 24.93492",B,BUS,46.0,686.0
HSL:9640205,Suotorppa,60.456697,24.982749,"60.456697, 24.982749",D,BUS,64.0,279.0
HSL:9640206,Terrisuon kuntaraja,60.471909,24.945694,"60.471909, 24.945694",D,BUS,91.0,1785.0
HSL:1351106,Kaskenpolttajantie,60.24933,24.93426,"60.24933, 24.93426",B,BUS,40.0,420.0
HSL:1050416,Perämiehenkatu,60.157802,24.935992,"60.157802, 24.935992",A,TRAM,15.0,352.0
HSL:1050415,Perämiehenkatu,60.15783,24.93573,"60.15783, 24.93573",A,TRAM,15.0,365.0
HSL:9640200,Kolistimenmäki,60.438756,24.980235,"60.438756, 24.980235",D,BUS,69.0,464.0
HSL:1050414,Iso Roobertinkatu,60.16278,24.93903,"60.16278, 24.93903",A,TRAM,8.0,75.0
HSL:1351109,Raiviontie,60.249277,24.942139,"60.249277, 24.942139",B,BUS,40.0,288.0
HSL:9640201,Kolistimenmäki,60.439897,24.978521,"60.439897, 24.978521",D,BUS,66.0,279.0
HSL:9640202,Metsämaa,60.446018,24.973734,"60.446018, 24.973734",D,BUS,65.0,279.0
HSL:1050413,Iso Roobertinkatu,60.16288,24.93909,"60.16288, 24.93909",A,TRAM,7.0,42.0
HSL:2434302,Pisanmäki,60.17161,24.68123,"60.17161, 24.68123",C,BUS,40.0,461.0
HSL:2434301,Pisanmäki,60.17155,24.68053,"60.17155, 24.68053",C,BUS,41.0,505.0
HSL:1351103,Pitkämäentie,60.24882,24.92861,"60.24882, 24.92861",B,BUS,40.0,517.0
HSL:1351104,Pitkämäentie,60.24872,24.92689,"60.24872, 24.92689",B,BUS,39.0,421.0
HSL:1351101,Paloheinäntie,60.24797,24.92389,"60.24797, 24.92389",B,BUS,37.0,399.0
HSL:1351102,Paloheinäntie,60.24687,24.9239,"60.24687, 24.9239",B,BUS,35.0,258.0
HSL:1050408,Viiskulma,60.161274,24.941349,"60.161274, 24.941349",A,TRAM,8.0,21.0
HSL:2614226,Kuurinmäki,60.19976,24.70503,"60.19976, 24.70503",B,BUS,41.0,1405.0
HSL:2614227,Kuurinmäki,60.19995,24.705046,"60.19995, 24.705046",B,BUS,41.0,1373.0
HSL:1050417,Telakkakatu,60.158449,24.934163,"60.158449, 24.934163",A,TRAM,14.0,219.0
HSL:1020602,Rautatientori,60.170388,24.939845,"60.170388, 24.939845",A,SUBWAY,3.0,215.0
HSL:1020601,Rautatientori,60.170379,24.939846,"60.170379, 24.939846",A,SUBWAY,3.0,215.0
HSL:1020604,Helsingin yliopisto,60.172026,24.94785,"60.172026, 24.94785",A,SUBWAY,4.0,184.0
HSL:1020603,Helsingin yliopisto,60.172009,24.947915,"60.172009, 24.947915",A,SUBWAY,4.0,185.0
HSL:2614286,Bembölensilta,60.22219,24.66789,"60.22219, 24.66789",C,BUS,48.0,772.0
HSL:4750299,Teuvontie,60.32767,25.10175,"60.32767, 25.10175",C,BUS,44.0,483.0
HSL:1302217,Kuusiniementie,60.18716,24.86985,"60.18716, 24.86985",A,BUS,30.0,368.0
HSL:1302218,Kuusisaarenkuja,60.184553,24.857309,"60.184553, 24.857309",A,BUS,27.0,593.0
HSL:1302219,Kuusisaarenkuja,60.18488,24.85935,"60.18488, 24.85935",A,BUS,30.0,717.0
HSL:2614256,Korukuja,60.19862,24.70922,"60.19862, 24.70922",B,BUS,44.0,1636.0
HSL:2614257,Hopeatie,60.19802,24.71458,"60.19802, 24.71458",B,BUS,44.0,413.0
HSL:2614258,Hopeatie,60.198,24.71445,"60.198, 24.71445",B,BUS,44.0,401.0
HSL:2614259,Korukuja,60.19899,24.70857,"60.19899, 24.70857",B,BUS,44.0,1615.0
HSL:1302216,Kuusiniementie,60.18696,24.8681,"60.18696, 24.8681",A,BUS,31.0,457.0
HSL:2614260,Kuurintorppa,60.197256,24.718653,"60.197256, 24.718653",B,BUS,42.0,351.0
HSL:2632240,Jauhotullintie,60.23172,24.69809,"60.23172, 24.69809",C,BUS,47.0,448.0
HSL:2632243,Träskändan kartano,60.23605,24.7054,"60.23605, 24.7054",C,BUS,45.0,373.0
HSL:2632242,Träskändan kartano,60.23498,24.70481,"60.23498, 24.70481",C,BUS,47.0,499.0
HSL:2632241,Pihlajarinne,60.23238,24.69878,"60.23238, 24.69878",C,BUS,48.0,532.0
HSL:2632248,Ryytimaa,60.24082,24.71155,"60.24082, 24.71155",C,BUS,45.0,602.0
HSL:2632247,Träskändanristi,60.2389,24.70829,"60.2389, 24.70829",C,BUS,45.0,672.0
HSL:2632246,Träskändanristi,60.23841,24.70811,"60.23841, 24.70811",C,BUS,44.0,627.0
HSL:2632245,Kylänportti,60.24055,24.70263,"60.24055, 24.70263",C,BUS,50.0,1006.0
HSL:6060201,Matta,60.092123,24.501967,"60.092123, 24.501967",D,BUS,57.0,584.0
HSL:2632249,Ryytimaa,60.24109,24.71284,"60.24109, 24.71284",C,BUS,47.0,738.0
HSL:2632233,Tollinportti,60.22548,24.68117,"60.22548, 24.68117",C,BUS,49.0,420.0
HSL:2632232,Bemböle skola,60.22308,24.6774,"60.22308, 24.6774",C,BUS,49.0,550.0
HSL:2632237,Pellas,60.22856,24.69157,"60.22856, 24.69157",C,BUS,49.0,483.0
HSL:2632236,Itäpelto,60.22601,24.68628,"60.22601, 24.68628",C,BUS,49.0,414.0
HSL:2632235,Itäpelto,60.22592,24.68556,"60.22592, 24.68556",C,BUS,49.0,413.0
HSL:2632234,Tollinportti,60.22558,24.68211,"60.22558, 24.68211",C,BUS,49.0,434.0
HSL:2632239,Jauhotullintie,60.23077,24.69602,"60.23077, 24.69602",C,BUS,48.0,536.0
HSL:2632238,Pellas,60.229,24.69282,"60.229, 24.69282",C,BUS,48.0,427.0
HSL:2644248,Punjo,60.26953,24.59526,"60.26953, 24.59526",C,BUS,55.0,580.0
HSL:2644249,Solvik,60.27654,24.5897,"60.27654, 24.5897",C,BUS,55.0,491.0
HSL:2644247,Punjo,60.26876,24.59526,"60.26876, 24.59526",C,BUS,55.0,552.0
HSL:2632262,Puotismäentie,60.24011,24.6906,"60.24011, 24.6906",C,BUS,55.0,507.0
HSL:2632261,Karamzininpuisto,60.24461,24.71319,"60.24461, 24.71319",C,BUS,47.0,602.0
HSL:2632260,Auroranportti,60.23844,24.70498,"60.23844, 24.70498",C,BUS,44.0,373.0
HSL:1250551,Käpylä,60.220269,24.947051,"60.220269, 24.947051",A,RAIL,12.0,297.0
HSL:2632251,Kulloonmäki,60.24653,24.71277,"60.24653, 24.71277",C,BUS,46.0,535.0
HSL:6060202,Bondarbyntie,60.097985,24.498815,"60.097985, 24.498815",D,BUS,55.0,500.0
HSL:2632250,Karamzinin koulu,60.24335,24.71488,"60.24335, 24.71488",C,BUS,46.0,603.0
HSL:6060203,Bondarbyntie,60.098087,24.497983,"60.098087, 24.497983",D,BUS,56.0,548.0
HSL:6060204,Gunnarsby,60.102107,24.486558,"60.102107, 24.486558",D,BUS,60.0,518.0
HSL:6060205,Gunnarsby,60.102485,24.486728,"60.102485, 24.486728",D,BUS,59.0,482.0
HSL:1333302,Honkasuontie,60.257239,24.840586,"60.257239, 24.840586",B,BUS,39.0,1486.0
HSL:6060206,Peuramaantie,60.105797,24.4791,"60.105797, 24.4791",D,BUS,60.0,574.0
HSL:2632254,Emännäntie,60.2496,24.71569,"60.2496, 24.71569",C,BUS,46.0,486.0
HSL:6060207,Peuramaantie,60.106565,24.479938,"60.106565, 24.479938",D,BUS,58.0,482.0
HSL:1333301,Honkasuontie,60.257327,24.84061,"60.257327, 24.84061",B,BUS,39.0,1484.0
HSL:6060208,Korkkulla,60.11543,24.4815,"60.11543, 24.4815",D,BUS,51.0,989.0
HSL:2632253,Emännäntie,60.24994,24.7166,"60.24994, 24.7166",C,BUS,47.0,553.0
HSL:2632252,Kulloonmäki,60.24641,24.71263,"60.24641, 24.71263",C,BUS,45.0,502.0
HSL:6060209,Korkkulla,60.11624,24.4822,"60.11624, 24.4822",D,BUS,41.0,903.0
HSL:2632259,Auroranportti,60.23785,24.70422,"60.23785, 24.70422",C,BUS,45.0,450.0
HSL:2632258,Träskändanristi,60.23912,24.70695,"60.23912, 24.70695",C,BUS,46.0,717.0
HSL:2632257,Kulloonsilta,60.25106,24.71774,"60.25106, 24.71774",C,BUS,49.0,726.0
HSL:6060212,Tolsa,60.118599,24.474462,"60.118599, 24.474462",D,BUS,46.0,494.0
HSL:2644230,Haltia,60.293557,24.558697,"60.293557, 24.558697",C,BUS,62.0,653.0
HSL:2644231,Haltia,60.294402,24.556703,"60.294402, 24.556703",C,BUS,60.0,555.0
HSL:2644232,Nuuksionpää,60.31662,24.53793,"60.31662, 24.53793",C,BUS,64.0,491.0
HSL:1351129,Paloheinän jäähalli,60.253775,24.918462,"60.253775, 24.918462",B,BUS,37.0,259.0
HSL:1351127,Kuusmiehentie,60.25581,24.93762,"60.25581, 24.93762",B,BUS,41.0,262.0
HSL:1351122,Rakovalkeantie,60.25289,24.94031,"60.25289, 24.94031",B,BUS,42.0,341.0
HSL:1351125,Kuusmiehentie,60.255902,24.937706,"60.255902, 24.937706",B,BUS,43.0,355.0
HSL:1351123,Tervastie,60.25147,24.94151,"60.25147, 24.94151",B,BUS,42.0,387.0
HSL:1351124,Rakovalkeantie,60.2527,24.94095,"60.2527, 24.94095",B,BUS,42.0,345.0
HSL:2632202,Järvenperänsilta,60.24102,24.70065,"60.24102, 24.70065",C,BUS,51.0,1132.0
HSL:4750201,Onervantie,60.3279,25.09475,"60.3279, 25.09475",C,BUS,44.0,584.0
HSL:4750202,Onervantie,60.32803,25.09629,"60.32803, 25.09629",C,BUS,43.0,485.0
HSL:4750203,Teuvontie,60.32736,25.10289,"60.32736, 25.10289",C,BUS,45.0,571.0
HSL:4750204,Tuulikintie,60.32423,25.10955,"60.32423, 25.10955",C,BUS,46.0,546.0
HSL:4750205,Tuulikintie,60.3247,25.10919,"60.3247, 25.10919",C,BUS,45.0,487.0
HSL:4750206,Pentintie,60.32138,25.11206,"60.32138, 25.11206",C,BUS,46.0,529.0
HSL:4750207,Pentintie,60.32126,25.11231,"60.32126, 25.11231",C,BUS,46.0,501.0
HSL:4750208,Kaukonkuja,60.31848,25.09669,"60.31848, 25.09669",C,BUS,45.0,444.0
HSL:4750209,Nyyrikintie,60.31961,25.09455,"60.31961, 25.09455",C,BUS,46.0,599.0
HSL:1351116,Kivimäki,60.25305,24.9188,"60.25305, 24.9188",B,BUS,39.0,336.0
HSL:1351117,Kivimäki,60.25285,24.91874,"60.25285, 24.91874",B,BUS,39.0,343.0
HSL:1351110,Raiviontie,60.249188,24.942028,"60.249188, 24.942028",B,BUS,40.0,262.0
HSL:1351114,Repovuori,60.25068,24.9198,"60.25068, 24.9198",B,BUS,38.0,349.0
HSL:1351115,Repovuori,60.24994,24.91996,"60.24994, 24.91996",B,BUS,37.0,280.0
HSL:1351112,Saramäentie,60.24888,24.94679,"60.24888, 24.94679",B,BUS,43.0,1403.0
HSL:1351113,Paloheinäntie,60.2477,24.92264,"60.2477, 24.92264",B,BUS,37.0,384.0
HSL:4750210,Nyyrikintie,60.3206,25.09284,"60.3206, 25.09284",C,BUS,44.0,445.0
HSL:4750211,Tapiontie,60.32087,25.08958,"60.32087, 25.08958",C,BUS,45.0,582.0
HSL:4750212,Tapiontie,60.32134,25.0874,"60.32134, 25.0874",C,BUS,43.0,441.0
HSL:4750213,Kaukonkuja,60.31788,25.09712,"60.31788, 25.09712",C,BUS,46.0,521.0
HSL:4750214,Päiväkummuntie,60.31573,25.10179,"60.31573, 25.10179",C,BUS,47.0,560.0
HSL:4750215,Yrjänänkuja,60.31645,25.10366,"60.31645, 25.10366",C,BUS,49.0,668.0
HSL:4750216,Yrjänänkuja,60.31682,25.10541,"60.31682, 25.10541",C,BUS,47.0,494.0
HSL:2614206,Kuurintorppa,60.197263,24.718617,"60.197263, 24.718617",B,BUS,42.0,349.0
HSL:4750217,Päiväkummuntie,60.31596,25.10011,"60.31596, 25.10011",C,BUS,46.0,442.0
HSL:1363101,Viikki,60.229313,25.010037,"60.229313, 25.010037",B,BUS,26.0,260.0
HSL:4750219,Ylermintie,60.31804,25.10727,"60.31804, 25.10727",C,BUS,49.0,624.0
HSL:9512027,Peltola,60.491631,25.092598,"60.491631, 25.092598",D,BUS,59.0,1901.0
HSL:9512026,Laurila,60.491042,25.096685,"60.491042, 25.096685",D,BUS,53.0,823.0
HSL:9512020,Haarajoki,60.50441,25.15745,"60.50441, 25.15745",D,BUS,55.0,905.0
HSL:9512022,Linjatie,60.510494,25.162735,"60.510494, 25.162735",D,BUS,57.0,922.0
HSL:9512021,Linjatie,60.510221,25.160293,"60.510221, 25.160293",D,BUS,57.0,901.0
HSL:4750220,Ylermintie,60.31855,25.10905,"60.31855, 25.10905",C,BUS,47.0,486.0
HSL:4750221,Kyllikintie,60.32045,25.11164,"60.32045, 25.11164",C,BUS,48.0,632.0
HSL:4750222,Päiväkummuntie,60.31618,25.09939,"60.31618, 25.09939",C,BUS,47.0,576.0
HSL:1351132,Sysiniitty,60.255889,24.930862,"60.255889, 24.930862",B,BUS,36.0,497.0
HSL:4310211,Sompiontie,60.373678,24.80553,"60.373678, 24.80553",C,BUS,40.0,714.0
HSL:9506002,Kallio-Kuninkala,60.445708,25.077829,"60.445708, 25.077829",D,BUS,47.0,473.0
HSL:4310212,Sompiontie,60.374543,24.805901,"60.374543, 24.805901",C,BUS,41.0,807.0
HSL:4310213,Klaukkalantie,60.354738,24.805117,"60.354738, 24.805117",C,BUS,47.0,1015.0
HSL:4310214,Klaukkalantie,60.35501,24.80292,"60.35501, 24.80292",C,BUS,47.0,1043.0
HSL:9050209,Levonmäentie,60.38965,25.14576,"60.38965, 25.14576",D,BUS,42.0,214.0
HSL:9050208,Levonmäentie,60.38884,25.14521,"60.38884, 25.14521",D,BUS,44.0,302.0
HSL:4310210,Mäkimatintie,60.360961,24.807177,"60.360961, 24.807177",C,BUS,43.0,784.0
HSL:9050205,Keinukalliontie,60.38618,25.14439,"60.38618, 25.14439",D,BUS,47.0,306.0
HSL:9050204,Metsärinne,60.40798,25.14112,"60.40798, 25.14112",D,BUS,41.0,509.0
HSL:9050206,Keinukalliontie,60.38642,25.14572,"60.38642, 25.14572",D,BUS,43.0,204.0
HSL:9050201,Annantie,60.406755,25.145383,"60.406755, 25.145383",D,BUS,42.0,542.0
HSL:4310215,Mäntylä,60.35648,24.79697,"60.35648, 24.79697",C,BUS,44.0,716.0
HSL:4310216,Mäntylä,60.357291,24.795849,"60.357291, 24.795849",C,BUS,45.0,817.0
HSL:4310217,Klaukkalantie,60.35337,24.8067,"60.35337, 24.8067",C,BUS,46.0,910.0
HSL:9050203,Metsärinne,60.40851,25.14048,"60.40851, 25.14048",D,BUS,42.0,582.0
HSL:4310218,Klaukkalantie,60.356043,24.807018,"60.356043, 24.807018",C,BUS,49.0,1154.0
HSL:2415266,Verkkosaarenkuja,60.12457,24.67214,"60.12457, 24.67214",C,BUS,43.0,413.0
HSL:9050210,Auratie,60.39164,25.14634,"60.39164, 25.14634",D,BUS,44.0,315.0
HSL:1171442,Auroran sairaala,60.19152,24.92539,"60.19152, 24.92539",A,TRAM,19.0,53.0
HSL:2415264,Ampujanmäki,60.12456,24.67677,"60.12456, 24.67677",C,BUS,44.0,422.0
HSL:1230109,Kumpulan kampus,60.20312,24.9673,"60.20312, 24.9673",A,BUS,22.0,459.0
HSL:1171444,Eläintarha,60.1926,24.93078,"60.1926, 24.93078",A,TRAM,18.0,56.0
HSL:1171445,Eläintarha,60.19255,24.93023,"60.19255, 24.93023",A,TRAM,19.0,120.0
HSL:2415263,Ampujanmäki,60.12456,24.67649,"60.12456, 24.67649",C,BUS,44.0,404.0
HSL:1230101,Kaironkatu,60.210181,24.976564,"60.210181, 24.976564",A,BUS,28.0,433.0
HSL:1230102,Kaironkatu,60.21121,24.97757,"60.21121, 24.97757",A,BUS,28.0,389.0
HSL:1230103,Arabia,60.20808,24.97474,"60.20808, 24.97474",A,BUS,24.0,178.0
HSL:9506001,Kaskitie,60.481562,25.09903,"60.481562, 25.09903",D,BUS,52.0,1515.0
HSL:9506000,Helsingintie,60.47825,25.103025,"60.47825, 25.103025",D,BUS,47.0,1214.0
HSL:1230104,Arabia,60.20827,24.97504,"60.20827, 24.97504",A,BUS,24.0,196.0
HSL:4310201,Luhtaanmäenkuja,60.34533,24.80527,"60.34533, 24.80527",C,BUS,56.0,1368.0
HSL:4310202,Luhtaanmäenkuja,60.34493,24.8056,"60.34493, 24.8056",C,BUS,56.0,1324.0
HSL:4310203,Kongontie,60.35002,24.79507,"60.35002, 24.79507",C,BUS,56.0,1583.0
HSL:9050216,Terästie,60.399395,25.146027,"60.399395, 25.146027",D,BUS,41.0,270.0
HSL:4310208,Peräjäntie,60.34986,24.80924,"60.34986, 24.80924",C,BUS,51.0,1324.0
HSL:4310209,Mäkimatintie,60.360498,24.807107,"60.360498, 24.807107",C,BUS,43.0,771.0
HSL:9050215,Sysitie,60.39715,25.14532,"60.39715, 25.14532",D,BUS,40.0,211.0
HSL:9050217,Terästie,60.399594,25.146268,"60.399594, 25.146268",D,BUS,40.0,208.0
HSL:9050212,Sorsakorventie,60.39415,25.14529,"60.39415, 25.14529",D,BUS,42.0,281.0
HSL:4310204,Kongontie,60.34956,24.79552,"60.34956, 24.79552",C,BUS,56.0,1637.0
HSL:9050211,Auratie,60.39214,25.14665,"60.39214, 25.14665",D,BUS,42.0,211.0
HSL:4310205,Kuhajoentie,60.35574,24.79479,"60.35574, 24.79479",C,BUS,47.0,910.0
HSL:4310206,Kuhajoentie,60.35625,24.79544,"60.35625, 24.79544",C,BUS,46.0,843.0
HSL:9050214,Harkkotie,60.39609,25.14491,"60.39609, 25.14491",D,BUS,43.0,365.0
HSL:9050213,Sorsakorventie,60.39432,25.14548,"60.39432, 25.14548",D,BUS,49.0,207.0
HSL:4310207,Peräjäntie,60.34856,24.80956,"60.34856, 24.80956",C,BUS,53.0,1471.0
HSL:2415279,Salmensuu,60.12684,24.66981,"60.12684, 24.66981",C,BUS,42.0,370.0
HSL:2415275,Kilvoituksentie,60.12729,24.67957,"60.12729, 24.67957",C,BUS,44.0,374.0
HSL:2415276,Kilvoituksentie,60.127785,24.679785,"60.127785, 24.679785",C,BUS,45.0,424.0
HSL:2415273,Soukansalmentie,60.12895,24.6673,"60.12895, 24.6673",C,BUS,41.0,375.0
HSL:2415274,Soukansalmentie,60.12875,24.66742,"60.12875, 24.66742",C,BUS,42.0,403.0
HSL:2415272,Munkkiranta,60.12895,24.68026,"60.12895, 24.68026",C,BUS,45.0,425.0
HSL:1020460,Kaisaniemenpuisto,60.17331,24.94921,"60.17331, 24.94921",A,TRAM,3.0,56.0
HSL:1020464,Ylioppilastalo,60.16776,24.94159,"60.16776, 24.94159",A,TRAM,3.0,119.0
HSL:1020463,Ylioppilastalo,60.16823,24.9411,"60.16823, 24.9411",A,TRAM,2.0,35.0
HSL:9050227,Päivölä,60.405585,25.132973,"60.405585, 25.132973",D,BUS,44.0,275.0
HSL:9050226,Etelä-Kaskela,60.40598,25.13959,"60.40598, 25.13959",D,BUS,49.0,204.0
HSL:9050229,Päivölä,60.40502,25.13488,"60.40502, 25.13488",D,BUS,40.0,349.0
HSL:9050222,Etelä-Kaskela,60.40684,25.14171,"60.40684, 25.14171",D,BUS,40.0,384.0
HSL:9050225,Ahjonsilta,60.40554,25.14059,"60.40554, 25.14059",D,BUS,40.0,377.0
HSL:9050224,Etelä-Kaskela,60.40645,25.14283,"60.40645, 25.14283",D,BUS,40.0,411.0
HSL:9050230,Vaihdekatu,60.40239,25.13575,"60.40239, 25.13575",D,BUS,46.0,214.0
HSL:2415246,Verkkosaarenkuja,60.12443,24.67228,"60.12443, 24.67228",C,BUS,43.0,403.0
HSL:9050232,Ahjon koulu,60.40087,25.13935,"60.40087, 25.13935",D,BUS,39.0,211.0
HSL:2415244,Soukankalliot,60.1302,24.68148,"60.1302, 24.68148",C,BUS,40.0,382.0
HSL:9050231,Vaihdekatu,60.40229,25.13579,"60.40229, 25.13579",D,BUS,47.0,266.0
HSL:2415242,Hanikka,60.13338,24.68143,"60.13338, 24.68143",C,BUS,39.0,386.0
HSL:2415243,Soukankalliot,60.13011,24.68134,"60.13011, 24.68134",C,BUS,41.0,436.0
HSL:2415241,Hanikka,60.13248,24.68105,"60.13248, 24.68105",C,BUS,40.0,483.0
HSL:1453287,Itäkeskus (M),60.20982,25.07738,"60.20982, 25.07738",B,BUS,19.0,288.0
HSL:1020450,Senaatintori,60.16901,24.95046,"60.16901, 24.95046",A,TRAM,6.0,281.0
HSL:1020453,Rautatieasema,60.17036,24.9413,"60.17036, 24.9413",A,TRAM,0.0,17.0
HSL:1020455,Senaatintori,60.169031,24.949924,"60.169031, 24.949924",A,TRAM,5.0,216.0
HSL:1020454,Rautatieasema,60.1704,24.94061,"60.1704, 24.94061",A,TRAM,2.0,135.0
HSL:1020457,Kaisaniemenkatu,60.171868,24.947656,"60.171868, 24.947656",A,TRAM,3.0,118.0
HSL:9050237,Kaskitie,60.41085,25.136687,"60.41085, 25.136687",D,BUS,47.0,906.0
HSL:1020459,Kaisaniemenpuisto,60.1736,24.94958,"60.1736, 24.94958",A,TRAM,4.0,127.0
HSL:1020458,Kaisaniemenkatu,60.17165,24.94751,"60.17165, 24.94751",A,TRAM,3.0,97.0
HSL:9050234,Moukaritie,60.40252,25.14004,"60.40252, 25.14004",D,BUS,50.0,505.0
HSL:9050233,Ahjon koulu,60.40055,25.14017,"60.40055, 25.14017",D,BUS,40.0,272.0
HSL:1171407,Kyllikinportti,60.19975,24.925266,"60.19975, 24.925266",A,TRAM,17.0,815.0
HSL:9050236,Kaskitie,60.41092,25.136889,"60.41092, 25.136889",D,BUS,47.0,920.0
HSL:1171409,Esterinportti,60.198524,24.928008,"60.198524, 24.928008",A,TRAM,13.0,532.0
HSL:9050235,Moukaritie,60.4028,25.14068,"60.4028, 25.14068",D,BUS,38.0,208.0
HSL:1171413,Uutiskatu,60.203426,24.919147,"60.203426, 24.919147",A,TRAM,23.0,984.0
HSL:1171414,Uutiskatu,60.203281,24.919213,"60.203281, 24.919213",A,TRAM,23.0,1005.0
HSL:1171415,Palkkatilanportti,60.196971,24.928691,"60.196971, 24.928691",A,TRAM,16.0,796.0
HSL:1171416,Palkkatilanportti,60.196543,24.928839,"60.196543, 24.928839",A,TRAM,15.0,666.0
HSL:1171410,Esterinportti,60.198204,24.928032,"60.198204, 24.928032",A,TRAM,13.0,508.0
HSL:1171411,Eevanmäki,60.201666,24.926457,"60.201666, 24.926457",A,TRAM,17.0,857.0
HSL:1171412,Eevanmäki,60.201637,24.926433,"60.201637, 24.926433",A,TRAM,18.0,886.0
HSL:9610311,Ojalantie,60.528282,24.946632,"60.528282, 24.946632",D,BUS,53.0,279.0
HSL:9610310,Ojalantie,60.528217,24.945391,"60.528217, 24.945391",D,BUS,54.0,348.0
HSL:9610315,Perttu,60.53898,24.960716,"60.53898, 24.960716",D,BUS,54.0,480.0
HSL:9610314,Perttu,60.539254,24.96233,"60.539254, 24.96233",D,BUS,53.0,378.0
HSL:9610317,Pertun koulu,60.544047,24.971887,"60.544047, 24.971887",D,BUS,51.0,416.0
HSL:9610316,Pertun koulu,60.544953,24.970892,"60.544953, 24.970892",D,BUS,51.0,396.0
HSL:9610319,Rovastintie,60.54031,24.96755,"60.54031, 24.96755",D,BUS,53.0,463.0
HSL:9610318,Rovastintie,60.54065,24.969297,"60.54065, 24.969297",D,BUS,51.0,358.0
HSL:9610309,Kuorontie,60.535146,24.954998,"60.535146, 24.954998",D,BUS,55.0,449.0
HSL:9610322,Vuorenteko,60.54307,24.987469,"60.54307, 24.987469",D,BUS,64.0,1795.0
HSL:9610323,Vuorenteko,60.542261,24.989126,"60.542261, 24.989126",D,BUS,66.0,1929.0
HSL:4160299,Silvola,60.265,24.88162,"60.265, 24.88162",B,BUS,32.0,525.0
HSL:4600501,Hiekkaharju,60.303266,25.049019,"60.303266, 25.049019",C,RAIL,28.0,448.0
HSL:1434101,Kipparlahti,60.19212,25.02393,"60.19212, 25.02393",B,BUS,24.0,927.0
HSL:1434114,Herttoniemenranta,60.190465,25.025627,"60.190465, 25.025627",B,BUS,26.0,1043.0
HSL:4400299,Kuninkaantie,60.28744,24.892523,"60.28744, 24.892523",B,BUS,42.0,460.0
HSL:4400298,Kuninkaantie,60.28786,24.89045,"60.28786, 24.89045",B,BUS,40.0,314.0
HSL:2415202,Suinonsalmi,60.12894,24.69474,"60.12894, 24.69474",C,BUS,41.0,379.0
HSL:2415203,Vesiniitty,60.136514,24.679891,"60.136514, 24.679891",C,BUS,39.0,454.0
HSL:2415201,Suinonsalmi,60.12835,24.69503,"60.12835, 24.69503",C,BUS,42.0,445.0
HSL:1434112,Laivalahdenportti,60.19326,25.03494,"60.19326, 25.03494",B,BUS,21.0,626.0
HSL:1171457,Eläintarha,60.19268,24.92923,"60.19268, 24.92923",A,TRAM,19.0,1002.0
HSL:1171458,Eläintarha,60.19285,24.92925,"60.19285, 24.92925",A,TRAM,20.0,179.0
HSL:1201602,Ruoholahti,60.163217,24.915563,"60.163217, 24.915563",A,SUBWAY,6.0,229.0
HSL:1201601,Ruoholahti,60.163178,24.915567,"60.163178, 24.915567",A,SUBWAY,6.0,225.0
HSL:9229201,Rajaveräjänmäki,60.39883,25.268908,"60.39883, 25.268908",D,BUS,61.0,256.0
HSL:1453214,Itäkeskus (M),60.21033,25.07785,"60.21033, 25.07785",B,BUS,20.0,330.0
HSL:9229202,Rajaveräjänmäki,60.398647,25.269158,"60.398647, 25.269158",D,BUS,74.0,1242.0
HSL:9229203,Jokitörmä,60.390658,25.291292,"60.390658, 25.291292",D,BUS,58.0,349.0
HSL:9229204,Jokitörmä,60.390917,25.291257,"60.390917, 25.291257",D,BUS,57.0,279.0
HSL:9229205,Björkbacka,60.392832,25.295147,"60.392832, 25.295147",D,BUS,57.0,277.0
HSL:9229206,Björkbacka,60.393408,25.296543,"60.393408, 25.296543",D,BUS,58.0,353.0
HSL:4160220,Vetokuja,60.27017,24.87906,"60.27017, 24.87906",B,BUS,36.0,283.0
HSL:9229207,Lindnäs,60.395527,25.298033,"60.395527, 25.298033",D,BUS,56.0,259.0
HSL:9229208,Lindnäs,60.396172,25.298523,"60.396172, 25.298523",D,BUS,58.0,349.0
HSL:4160222,Ukonkivenpolku,60.26189,24.87109,"60.26189, 24.87109",B,BUS,33.0,376.0
HSL:4160221,Vetokuja,60.26918,24.87913,"60.26918, 24.87913",B,BUS,35.0,251.0
HSL:4160224,Vaskipellontie.,60.25712,24.87201,"60.25712, 24.87201",B,BUS,38.0,771.0
HSL:4160223,Ukonkivenpolku,60.26171,24.8718,"60.26171, 24.8718",B,BUS,34.0,427.0
HSL:4160226,Ojahaka,60.26548,24.86497,"60.26548, 24.86497",B,BUS,35.0,1207.0
HSL:4160225,Vaskipellontie.,60.25685,24.87225,"60.25685, 24.87225",B,BUS,36.0,720.0
HSL:2241280,Juhannusmäki,60.18329,24.75372,"60.18329, 24.75372",B,BUS,37.0,695.0
HSL:4160217,Volvo,60.26342,24.87936,"60.26342, 24.87936",B,BUS,35.0,762.0
HSL:9217220,Semtu,60.406818,25.175801,"60.406818, 25.175801",D,BUS,49.0,204.0
HSL:1381120,Malmin tori,60.251435,25.008352,"60.251435, 25.008352",B,BUS,22.0,563.0
HSL:1381121,Malmin tori,60.25192,25.00724,"60.25192, 25.00724",B,BUS,23.0,657.0
HSL:4160216,Kaivosrinteenpolku,60.2707,24.8746,"60.2707, 24.8746",B,BUS,40.0,600.0
HSL:9217222,Mårtensby skola,60.402297,25.190354,"60.402297, 25.190354",D,BUS,51.0,203.0
HSL:4160219,Silvola,60.26605,24.88205,"60.26605, 24.88205",B,BUS,33.0,576.0
HSL:1381123,Malmin sairaala,60.253412,25.002922,"60.253412, 25.002922",B,BUS,27.0,965.0
HSL:9217221,Semtu,60.406233,25.177323,"60.406233, 25.177323",D,BUS,51.0,324.0
HSL:4160218,Volvo,60.26389,24.87979,"60.26389, 24.87979",B,BUS,32.0,162.0
HSL:9217223,Mårtensby skola,60.401692,25.192712,"60.401692, 25.192712",D,BUS,54.0,376.0
HSL:1381124,Malmin sairaala,60.253862,25.000757,"60.253862, 25.000757",B,BUS,28.0,608.0
HSL:1381126,Malmin sairaala,60.253695,25.00315,"60.253695, 25.00315",B,BUS,27.0,964.0
HSL:1453202,Itäkeskus (M),60.20995,25.076058,"60.20995, 25.076058",B,BUS,20.0,340.0
HSL:4160231,Kaarenmäenkuja,60.255061,24.870703,"60.255061, 24.870703",B,BUS,37.0,1499.0
HSL:4160230,Kaarenmäenkuja,60.254083,24.868954,"60.254083, 24.868954",B,BUS,36.0,1394.0
HSL:4160232,Silvola,60.265006,24.883116,"60.265006, 24.883116",B,BUS,33.0,559.0
HSL:4160237,Aapraminkaari,60.257385,24.866753,"60.257385, 24.866753",B,BUS,38.0,1370.0
HSL:4160236,Vaskipelto,60.259864,24.86914,"60.259864, 24.86914",B,BUS,36.0,1249.0
HSL:4160227,Ojahaka,60.26541,24.86472,"60.26541, 24.86472",B,BUS,35.0,1233.0
HSL:1381113,Leppätie,60.25161,24.99378,"60.25161, 24.99378",B,BUS,26.0,526.0
HSL:2241221,Vanha-Mankkaa,60.19409,24.7685,"60.19409, 24.7685",B,BUS,33.0,519.0
HSL:4160202,Kaivosrinteentie,60.27121,24.87063,"60.27121, 24.87063",B,BUS,43.0,858.0
HSL:4160201,Kaivosrinteentie,60.27117,24.870575,"60.27117, 24.870575",B,BUS,43.0,854.0
HSL:2241220,Juhanintie,60.19148,24.7639,"60.19148, 24.7639",B,BUS,41.0,1072.0
HSL:4160203,Kaivokselantie,60.26506,24.87261,"60.26506, 24.87261",B,BUS,37.0,605.0
HSL:1381101,Malmin asema,60.249951,25.0094,"60.249951, 25.0094",B,BUS,20.0,449.0
HSL:9217202,Kuusisaarentie,60.407475,25.152232,"60.407475, 25.152232",D,BUS,47.0,315.0
HSL:9217201,Kuusisaarentie,60.4078,25.152217,"60.4078, 25.152217",D,BUS,45.0,203.0
HSL:9217204,Ruotsinojantie,60.408222,25.157361,"60.408222, 25.157361",D,BUS,47.0,263.0
HSL:9217203,Vanikontie,60.407957,25.156596,"60.407957, 25.156596",D,BUS,46.0,203.0
HSL:1381106,Malmin asema,60.25027,25.0093,"60.25027, 25.0093",B,BUS,20.0,445.0
HSL:9217205,Ruotsinojantie,60.408772,25.157585,"60.408772, 25.157585",D,BUS,46.0,203.0
HSL:1381107,Syystie,60.25636,24.99936,"60.25636, 24.99936",B,BUS,30.0,530.0
HSL:9217208,Hiekkamalmintie,60.39438,25.15819,"60.39438, 25.15819",D,BUS,53.0,1011.0
HSL:9217207,Hiekkamalmintie,60.394252,25.157717,"60.394252, 25.157717",D,BUS,53.0,984.0
HSL:1381102,Malmin asema,60.2502,25.00917,"60.2502, 25.00917",B,BUS,20.0,440.0
HSL:9217209,Santamaantie,60.410837,25.165923,"60.410837, 25.165923",D,BUS,48.0,246.0
HSL:1381103,Malmin asema,60.25015,25.00951,"60.25015, 25.00951",B,BUS,19.0,426.0
HSL:1381104,Malmin asema,60.24999,25.00914,"60.24999, 25.00914",B,BUS,20.0,451.0
HSL:1381105,Malmin asema,60.250516,25.009336,"60.250516, 25.009336",B,BUS,19.0,433.0
HSL:2241237,Kokinkylänsilta,60.18099,24.75528,"60.18099, 24.75528",B,BUS,34.0,352.0
HSL:2241238,Kokinkylänsilta,60.18139,24.75348,"60.18139, 24.75348",B,BUS,36.0,478.0
HSL:4160211,Vaskivuori,60.26319,24.87052,"60.26319, 24.87052",B,BUS,30.0,450.0
HSL:4160210,Kaivosvoudinpuisto,60.26348,24.87057,"60.26348, 24.87057",B,BUS,31.0,522.0
HSL:2241234,Mankkaanaukio,60.19408,24.76924,"60.19408, 24.76924",B,BUS,32.0,461.0
HSL:4160213,Vetotie,60.26635,24.87516,"60.26635, 24.87516",B,BUS,39.0,1039.0
HSL:4160212,Vaskivuori,60.263299,24.869046,"60.263299, 24.869046",B,BUS,30.0,159.0
HSL:4160215,Kaivosrinteenpolku,60.27018,24.87501,"60.27018, 24.87501",B,BUS,38.0,476.0
HSL:4160214,Vetotie,60.2663,24.87468,"60.2663, 24.87468",B,BUS,38.0,997.0
HSL:4160206,Kaivostie,60.26627,24.87003,"60.26627, 24.87003",B,BUS,37.0,629.0
HSL:4160205,Kaivoksela,60.26953,24.87291,"60.26953, 24.87291",B,BUS,39.0,463.0
HSL:4160208,Kaivosvoudintie,60.26452,24.86958,"60.26452, 24.86958",B,BUS,34.0,410.0
HSL:9217211,Satotalma,60.407598,25.167934,"60.407598, 25.167934",D,BUS,56.0,767.0
HSL:9217210,Santamaantie,60.411197,25.166242,"60.411197, 25.166242",D,BUS,47.0,203.0
HSL:4160207,Kaivostie,60.26625,24.87078,"60.26625, 24.87078",B,BUS,37.0,662.0
HSL:9217213,Nygårdintie,60.41258,25.171132,"60.41258, 25.171132",D,BUS,48.0,254.0
HSL:4160209,Kaivosvoudintie,60.26412,24.86956,"60.26412, 24.86956",B,BUS,33.0,361.0
HSL:9217212,Nygårdintie,60.412913,25.170423,"60.412913, 25.170423",D,BUS,47.0,203.0
HSL:9217215,Norantie,60.398158,25.173505,"60.398158, 25.173505",D,BUS,67.0,2013.0
HSL:9217214,Satotalma,60.407043,25.171219,"60.407043, 25.171219",D,BUS,54.0,518.0
HSL:9217216,Norantie,60.397966,25.174429,"60.397966, 25.174429",D,BUS,68.0,1471.0
HSL:9217219,Talman koulu,60.410069,25.173239,"60.410069, 25.173239",D,BUS,48.0,217.0
HSL:9217218,Talman koulu,60.409956,25.173124,"60.409956, 25.173124",D,BUS,48.0,216.0
HSL:9205210,Majvik,60.262063,25.256016,"60.262063, 25.256016",D,BUS,44.0,512.0
HSL:9205213,Storören,60.262139,25.234679,"60.262139, 25.234679",D,BUS,43.0,534.0
HSL:9205211,Katrineholm,60.262375,25.259562,"60.262375, 25.259562",D,BUS,42.0,391.0
HSL:9205212,Katrineholm,60.262335,25.262876,"60.262335, 25.262876",D,BUS,45.0,588.0
HSL:6030240,Jorvaksen asema,60.136975,24.511391,"60.136975, 24.511391",D,BUS,42.0,453.0
HSL:2415280,Salmensuu,60.1267,24.66982,"60.1267, 24.66982",C,BUS,43.0,418.0
HSL:6030239,Jorvaksen asema,60.136807,24.510899,"60.136807, 24.510899",D,BUS,42.0,420.0
HSL:9205202,Storören,60.261534,25.236805,"60.261534, 25.236805",D,BUS,46.0,632.0
HSL:6030232,Inkilänportti,60.13751,24.537388,"60.13751, 24.537388",D,BUS,33.0,511.0
HSL:9205203,Sopukka,60.261674,25.242695,"60.261674, 25.242695",D,BUS,43.0,525.0
HSL:9205201,Storören,60.261618,25.232817,"60.261618, 25.232817",D,BUS,41.0,387.0
HSL:9205206,Kasvihuoneet,60.264911,25.247349,"60.264911, 25.247349",D,BUS,50.0,940.0
HSL:9205207,Haavistontie,60.26964,25.249669,"60.26964, 25.249669",D,BUS,58.0,1513.0
HSL:9205204,Sopukka,60.26176,25.240666,"60.26176, 25.240666",D,BUS,43.0,393.0
HSL:9205205,Kasvihuoneet,60.264778,25.246801,"60.264778, 25.246801",D,BUS,50.0,972.0
HSL:9205208,Haavistontie,60.269146,25.249647,"60.269146, 25.249647",D,BUS,57.0,1458.0
HSL:9205209,Majvik,60.262158,25.25394,"60.262158, 25.25394",D,BUS,42.0,387.0
HSL:1230112,Kumpulan kampus,60.20316,24.96657,"60.20316, 24.96657",A,BUS,20.0,392.0
HSL:1230113,Kokkosaarenkatu,60.20548,24.97209,"60.20548, 24.97209",A,BUS,25.0,324.0
HSL:1230114,Kokkosaarenkatu,60.20593,24.97255,"60.20593, 24.97255",A,BUS,24.0,262.0
HSL:6030227,Ingvalsby,60.143618,24.521718,"60.143618, 24.521718",D,BUS,45.0,736.0
HSL:6030228,Ericsson,60.132833,24.512607,"60.132833, 24.512607",D,BUS,35.0,622.0
HSL:9640104,Nummi pohjoinen,60.449735,24.950241,"60.449735, 24.950241",D,BUS,68.0,261.0
HSL:1543139,Majakanvartijankatu,60.21246,25.17106,"60.21246, 25.17106",B,BUS,37.0,495.0
HSL:9640100,Fatisuo,60.454664,24.946674,"60.454664, 24.946674",D,BUS,69.0,261.0
HSL:9640102,Nummi eteläinen,60.445237,24.951335,"60.445237, 24.951335",D,BUS,67.0,261.0
HSL:1531155,G. Pauligin katu,60.20211,25.15305,"60.20211, 25.15305",B,BUS,33.0,388.0
HSL:1531154,Aurinkotuulenkatu,60.20314,25.15917,"60.20314, 25.15917",B,BUS,35.0,441.0
HSL:1531153,Aurinkotuulenkatu,60.20318,25.15899,"60.20318, 25.15899",B,BUS,35.0,426.0
HSL:4810245,Tavitie,60.36148,25.06622,"60.36148, 25.06622",C,BUS,47.0,555.0
HSL:1531151,Sumukuja,60.20476,25.15814,"60.20476, 25.15814",B,BUS,35.0,416.0
HSL:4810246,Tavitie,60.3615,25.066,"60.3615, 25.066",C,BUS,46.0,464.0
HSL:4810247,Lehmustontie,60.35473,25.05225,"60.35473, 25.05225",C,BUS,44.0,549.0
HSL:4810248,Lehmustontie,60.35416,25.05255,"60.35416, 25.05255",C,BUS,43.0,460.0
HSL:4810241,Suojalantie,60.34716,25.05985,"60.34716, 25.05985",C,BUS,57.0,647.0
HSL:4810242,Lumo,60.3525,25.07726,"60.3525, 25.07726",C,BUS,38.0,586.0
HSL:4810243,Korson asema,60.35276,25.07843,"60.35276, 25.07843",C,BUS,38.0,594.0
HSL:4810244,Silfver,60.34678,25.04861,"60.34678, 25.04861",C,BUS,48.0,426.0
HSL:1531159,Aurinkol. puistotie,60.204132,25.147136,"60.204132, 25.147136",B,BUS,31.0,734.0
HSL:1531158,Ivan Falinin kuja,60.20239,25.14966,"60.20239, 25.14966",B,BUS,35.0,974.0
HSL:1531157,Ivan Falinin kuja,60.20242,25.14968,"60.20242, 25.14968",B,BUS,35.0,971.0
HSL:4810240,Korson asema,60.35101,25.07761,"60.35101, 25.07761",C,BUS,35.0,413.0
HSL:1531156,G. Pauligin katu,60.20211,25.15324,"60.20211, 25.15324",B,BUS,34.0,428.0
HSL:4660202,Hakintie,60.29189,25.07317,"60.29189, 25.07317",C,BUS,31.0,261.0
HSL:4660205,Honkakallionkuja,60.29378,25.089652,"60.29378, 25.089652",C,BUS,43.0,655.0
HSL:4660204,Kesko,60.28978,25.07599,"60.28978, 25.07599",C,BUS,40.0,248.0
HSL:4660207,Malmarintie,60.2879,25.08108,"60.2879, 25.08108",C,BUS,35.0,342.0
HSL:1543148,Sataman portti C,60.21435,25.18174,"60.21435, 25.18174",B,BUS,37.0,458.0
HSL:4660206,Malmarintie,60.28758,25.07993,"60.28758, 25.07993",C,BUS,34.0,312.0
HSL:1543149,Konttialue,60.213712,25.17587,"60.213712, 25.17587",B,BUS,38.0,438.0
HSL:4660209,Honkanummen hautausm,60.29043,25.08209,"60.29043, 25.08209",C,BUS,38.0,386.0
HSL:4660208,Malmarintie,60.28666,25.08042,"60.28666, 25.08042",C,BUS,35.0,377.0
HSL:4810238,Heikantie,60.34579,25.07516,"60.34579, 25.07516",C,BUS,42.0,897.0
HSL:4810239,Korson asema,60.351113,25.077546,"60.351113, 25.077546",C,BUS,36.0,424.0
HSL:4250215,Härkähaankuja,60.294941,24.850681,"60.294941, 24.850681",C,BUS,36.0,771.0
HSL:4250214,Härkähaankuja,60.295186,24.850523,"60.295186, 24.850523",C,BUS,35.0,745.0
HSL:1531163,"Vuosaari(M), tulo",60.207178,25.14466,"60.207178, 25.14466",B,BUS,26.0,339.0
HSL:4810234,Kalmuuri,60.35686,25.078553,"60.35686, 25.078553",C,BUS,45.0,1089.0
HSL:4250213,Vehkala,60.295045,24.845304,"60.295045, 24.845304",C,BUS,32.0,465.0
HSL:4250212,Vehkala,60.295095,24.844916,"60.295095, 24.844916",C,BUS,31.0,439.0
HSL:4810235,Urpiaisentie,60.360146,25.081257,"60.360146, 25.081257",C,BUS,51.0,1518.0
HSL:4810236,Urpiaisentie,60.359299,25.079697,"60.359299, 25.079697",C,BUS,49.0,1378.0
HSL:4660201,Hakintie,60.29136,25.07367,"60.29136, 25.07367",C,BUS,33.0,337.0
HSL:4250211,Vantaanjänne,60.30256,24.8448,"60.30256, 24.8448",C,BUS,43.0,1322.0
HSL:1531160,Aurinkol. puistotie,60.204049,25.147076,"60.204049, 25.147076",B,BUS,32.0,750.0
HSL:4810237,Urpiaisentie,60.359454,25.081307,"60.359454, 25.081307",C,BUS,51.0,1475.0
HSL:4250210,Vantaanjänne,60.30256,24.84578,"60.30256, 24.84578",C,BUS,43.0,1341.0
HSL:4810230,Korson asema,60.35022,25.07653,"60.35022, 25.07653",C,BUS,36.0,457.0
HSL:4810231,Heikantie,60.34492,25.07435,"60.34492, 25.07435",C,BUS,44.0,1027.0
HSL:4810232,Suojalantie,60.34731,25.05984,"60.34731, 25.05984",C,BUS,52.0,1650.0
HSL:4810233,Kalmuuri,60.357904,25.078772,"60.357904, 25.078772",C,BUS,47.0,1219.0
HSL:4250208,Rahkatie,60.3024,24.83584,"60.3024, 24.83584",C,BUS,43.0,447.0
HSL:4250207,Rahkatie,60.3023,24.83559,"60.3023, 24.83559",C,BUS,43.0,433.0
HSL:1543141,Eteläloisto,60.21065,25.17753,"60.21065, 25.17753",B,BUS,39.0,431.0
HSL:1291116,Riistavuori,60.21749,24.88834,"60.21749, 24.88834",B,BUS,20.0,740.0
HSL:1291115,Riistavuori,60.21736,24.88825,"60.21736, 24.88825",B,BUS,20.0,754.0
HSL:1291118,Vihdintie,60.214682,24.8869,"60.214682, 24.8869",B,BUS,21.0,462.0
HSL:1291117,Vihdintie,60.214595,24.886275,"60.214595, 24.886275",B,BUS,21.0,475.0
HSL:1291112,Angervotie,60.21766,24.89051,"60.21766, 24.89051",B,BUS,18.0,604.0
HSL:1291111,Haagan urheilukenttä,60.21624,24.89347,"60.21624, 24.89347",A,BUS,20.0,748.0
HSL:1291114,Riistavuorenkuja,60.218612,24.886913,"60.218612, 24.886913",B,BUS,22.0,882.0
HSL:1291113,Angervotie,60.217537,24.890406,"60.217537, 24.890406",B,BUS,18.0,611.0
HSL:2613004,Saarnimäki,60.19773,24.66941,"60.19773, 24.66941",C,BUS,49.0,1805.0
HSL:2613003,Saarnimäki,60.19794,24.66945,"60.19794, 24.66945",C,BUS,48.0,1716.0
HSL:1291110,Haagan urheilukenttä,60.21632,24.89437,"60.21632, 24.89437",A,BUS,20.0,766.0
HSL:2613001,Kirstinmäki,60.20123,24.6671,"60.20123, 24.6671",C,BUS,44.0,716.0
HSL:2613000,Kirstinmäki,60.201,24.66629,"60.201, 24.66629",C,BUS,45.0,1366.0
HSL:1332162,Maununnevantie,60.24347,24.89929,"60.24347, 24.89929",B,BUS,36.0,905.0
HSL:1332163,Kaarelantie,60.24515,24.89424,"60.24515, 24.89424",B,BUS,30.0,486.0
HSL:1332160,Kaarelankuja,60.238367,24.901746,"60.238367, 24.901746",B,BUS,30.0,526.0
HSL:2613009,Valapuisto,60.202778,24.66221,"60.202778, 24.66221",C,BUS,38.0,981.0
HSL:2613008,Valapuisto,60.202736,24.661962,"60.202736, 24.661962",C,BUS,38.0,977.0
HSL:1332161,Maununnevantie,60.24445,24.89929,"60.24445, 24.89929",B,BUS,35.0,806.0
HSL:2613007,Saarniraiviontie,60.19963,24.66454,"60.19963, 24.66454",C,BUS,44.0,1379.0
HSL:1291109,Haagan tori,60.212357,24.899886,"60.212357, 24.899886",A,BUS,25.0,283.0
HSL:1291108,Palokaivon aukio,60.216,24.89718,"60.216, 24.89718",A,BUS,22.0,896.0
HSL:1291105,Haagan tori,60.21229,24.89817,"60.21229, 24.89817",A,BUS,23.0,162.0
HSL:1291104,Haagan tori,60.2123,24.89835,"60.2123, 24.89835",A,BUS,24.0,208.0
HSL:1291107,Palokaivon aukio,60.215112,24.898336,"60.215112, 24.898336",A,BUS,24.0,160.0
HSL:1291106,Palokaivon aukio,60.21582,24.898291,"60.21582, 24.898291",A,BUS,22.0,866.0
HSL:1291101,Haagan tori,60.212396,24.898983,"60.212396, 24.898983",A,BUS,24.0,228.0
HSL:1291100,Riistavuorenkuja,60.217263,24.887564,"60.217263, 24.887564",B,BUS,21.0,798.0
HSL:1320191,Riukukuja,60.245478,24.838084,"60.245478, 24.838084",B,BUS,41.0,812.0
HSL:2613011,Kirstinharju,60.20037,24.66339,"60.20037, 24.66339",C,BUS,42.0,1269.0
HSL:1332173,Esikoisentie,60.25083,24.89639,"60.25083, 24.89639",B,BUS,32.0,709.0
HSL:1332171,Kaarelantie,60.24513,24.89214,"60.24513, 24.89214",B,BUS,29.0,377.0
HSL:1332172,Esikoisentie,60.25131,24.89707,"60.25131, 24.89707",B,BUS,32.0,700.0
HSL:1332170,Perhekunnantie,60.24874,24.8942,"60.24874, 24.8942",B,BUS,32.0,722.0
HSL:1320199,Vattuniemenkuja,60.153555,24.885076,"60.153555, 24.885076",A,BUS,22.0,704.0
HSL:1291138,Kultareuna,60.21059,24.8809,"60.21059, 24.8809",B,BUS,30.0,709.0
HSL:1291137,Korppaantie,60.20882,24.88933,"60.20882, 24.88933",A,BUS,24.0,281.0
HSL:1291139,Kultareuna,60.21066,24.8805,"60.21066, 24.8805",B,BUS,30.0,742.0
HSL:1291134,Haapalahdenkatu,60.205337,24.892668,"60.205337, 24.892668",A,BUS,26.0,704.0
HSL:4810209,Viklotie,60.35341,25.0565,"60.35341, 25.0565",C,BUS,43.0,463.0
HSL:1291133,Haapalahdenkatu,60.205452,24.89235,"60.205452, 24.89235",A,BUS,27.0,730.0
HSL:4810205,Teeritie,60.3526,25.06612,"60.3526, 25.06612",C,BUS,44.0,1040.0
HSL:1531111,Kallahti,60.200158,25.145418,"60.200158, 25.145418",B,BUS,37.0,873.0
HSL:1531110,Vuosaaren kirkko,60.212913,25.139195,"60.212913, 25.139195",B,BUS,36.0,1086.0
HSL:4810206,Joutsentie,60.3531,25.06058,"60.3531, 25.06058",C,BUS,50.0,1408.0
HSL:4810207,Joutsentie,60.3529,25.06141,"60.3529, 25.06141",C,BUS,48.0,1295.0
HSL:4660230,Kanervantie,60.288522,25.077184,"60.288522, 25.077184",C,BUS,36.0,461.0
HSL:4810208,Viklotie,60.35364,25.05589,"60.35364, 25.05589",C,BUS,44.0,549.0
HSL:1291131,Riistavuorenkuja,60.21935,24.886973,"60.21935, 24.886973",B,BUS,24.0,959.0
HSL:4810201,Maakotkanpolku,60.34928,25.07708,"60.34928, 25.07708",C,BUS,36.0,493.0
HSL:4810202,Korson asema,60.34964,25.07699,"60.34964, 25.07699",C,BUS,36.0,475.0
HSL:4810203,Korson asema,60.35029,25.07671,"60.35029, 25.07671",C,BUS,36.0,435.0
HSL:4810204,Teeritie,60.35271,25.06532,"60.35271, 25.06532",C,BUS,45.0,1091.0
HSL:1531118,Haapasaarenpolku,60.218699,25.142167,"60.218699, 25.142167",B,BUS,45.0,1777.0
HSL:1531116,Vuosaari (M),60.207062,25.144511,"60.207062, 25.144511",B,BUS,26.0,333.0
HSL:1531115,Vuosaari (M),60.20765,25.14419,"60.20765, 25.14419",B,BUS,26.0,357.0
HSL:1291127,Huopalahden asema,60.218752,24.892838,"60.218752, 24.892838",B,BUS,15.0,397.0
HSL:1291126,Korppaantie,60.2087,24.88968,"60.2087, 24.88968",A,BUS,24.0,319.0
HSL:1291128,Huopalahden asema,60.21847,24.89234,"60.21847, 24.89234",B,BUS,15.0,425.0
HSL:6120219,Navala,60.259165,24.447645,"60.259165, 24.447645",D,BUS,68.0,1913.0
HSL:1291123,Tunnelitie,60.21762,24.89964,"60.21762, 24.89964",A,BUS,21.0,808.0
HSL:1291122,Ansaritie,60.20837,24.88578,"60.20837, 24.88578",A,BUS,24.0,388.0
HSL:6120218,Navala,60.25824,24.447203,"60.25824, 24.447203",D,BUS,68.0,1922.0
HSL:1291125,Mäkipellon aukio,60.21965,24.90171,"60.21965, 24.90171",A,BUS,24.0,966.0
HSL:1543102,Mustankivenkatu,60.2071,25.1428,"60.2071, 25.1428",B,BUS,26.0,349.0
HSL:1291124,Tunnelitie,60.218427,24.89934,"60.218427, 24.89934",A,BUS,20.0,783.0
HSL:1531122,Koukkusaarentie,60.216697,25.134118,"60.216697, 25.134118",B,BUS,36.0,593.0
HSL:1531121,Vuosaari (M),60.207775,25.144066,"60.207775, 25.144066",B,BUS,26.0,372.0
HSL:1291121,Ansaritie,60.20828,24.88484,"60.20828, 24.88484",A,BUS,27.0,527.0
HSL:1291120,Talontie,60.20988,24.88902,"60.20988, 24.88902",A,BUS,23.0,264.0
HSL:2331201,Lillhemt,60.187463,24.728441,"60.187463, 24.728441",B,BUS,47.0,918.0
HSL:6120220,Eerikinkartano,60.257151,24.430902,"60.257151, 24.430902",D,BUS,71.0,633.0
HSL:1531123,Koukkusaarenpolku,60.215763,25.134552,"60.215763, 25.134552",B,BUS,43.0,1569.0
HSL:2331200,Lillhemt,60.187459,24.728423,"60.187459, 24.728423",B,BUS,47.0,919.0
HSL:2331209,Klaris,60.183301,24.744721,"60.183301, 24.744721",B,BUS,36.0,457.0
HSL:1543101,Mustankivenkatu,60.206937,25.143732,"60.206937, 25.143732",B,BUS,27.0,400.0
HSL:2331205,Olarinniityntie,60.181318,24.744735,"60.181318, 24.744735",B,BUS,42.0,657.0
HSL:2331206,Klaris,60.18218,24.74539,"60.18218, 24.74539",B,BUS,37.0,596.0
HSL:1291119,Talontie,60.209984,24.888485,"60.209984, 24.888485",A,BUS,22.0,188.0
HSL:6120221,Eerikinkartano,60.257858,24.431903,"60.257858, 24.431903",D,BUS,70.0,511.0
HSL:2331207,Henttaanaukio,60.189316,24.741816,"60.189316, 24.741816",B,BUS,37.0,401.0
HSL:2331208,Suurpellonaukio,60.184573,24.7443,"60.184573, 24.7443",B,BUS,37.0,541.0
HSL:4660214,Hakkila,60.29914,25.08635,"60.29914, 25.08635",C,BUS,40.0,338.0
HSL:1291159,Sankaritie,60.21567,24.899462,"60.21567, 24.899462",A,BUS,23.0,911.0
HSL:4660213,Hakkila,60.29971,25.08719,"60.29971, 25.08719",C,BUS,40.0,335.0
HSL:4660216,Hakkilankaari,60.30367,25.09197,"60.30367, 25.09197",C,BUS,39.0,261.0
HSL:4660215,Hakkilankaari,60.30463,25.09342,"60.30463, 25.09342",C,BUS,41.0,391.0
HSL:4660218,Kankikuja,60.30876,25.09437,"60.30876, 25.09437",C,BUS,41.0,268.0
HSL:4660217,Vanha Porvoontie,60.310227,25.094326,"60.310227, 25.094326",C,BUS,43.0,456.0
HSL:4810227,Kulotie,60.34677,25.06812,"60.34677, 25.06812",C,BUS,46.0,1191.0
HSL:1291152,Kylänevantie,60.213111,24.8938,"60.213111, 24.8938",A,BUS,26.0,1120.0
HSL:1291151,Yhdistystie,60.211307,24.893195,"60.211307, 24.893195",A,BUS,28.0,593.0
HSL:4250205,Petas,60.30332,24.83012,"60.30332, 24.83012",C,BUS,44.0,433.0
HSL:4810228,Korson asema,60.35035,25.07627,"60.35035, 25.07627",C,BUS,36.0,460.0
HSL:1291153,Kylänevantie,60.213057,24.893866,"60.213057, 24.893866",A,BUS,26.0,1117.0
HSL:4810223,Haikaratie,60.34757,25.06725,"60.34757, 25.06725",C,BUS,48.0,1356.0
HSL:4660210,Honkanummen hautausm,60.28999,25.08171,"60.28999, 25.08171",C,BUS,36.0,257.0
HSL:4810224,Haikaratie,60.34788,25.06706,"60.34788, 25.06706",C,BUS,49.0,1380.0
HSL:4810225,Korso,60.34683,25.074,"60.34683, 25.074",C,BUS,42.0,866.0
HSL:1291150,Yhdistystie,60.21142,24.89337,"60.21142, 24.89337",A,BUS,28.0,602.0
HSL:4660212,Pavinpolku,60.29411,25.08373,"60.29411, 25.08373",C,BUS,38.0,270.0
HSL:4810226,Kulotie,60.34667,25.06689,"60.34667, 25.06689",C,BUS,48.0,1370.0
HSL:4660211,Pavinpolku,60.2948,25.08456,"60.2948, 25.08456",C,BUS,39.0,372.0
HSL:1122413,Linnanmäki (pohj.),60.19124,24.9406,"60.19124, 24.9406",A,TRAM,16.0,110.0
HSL:1122414,Linnanmäki (pohj.),60.19117,24.94101,"60.19117, 24.94101",A,TRAM,16.0,76.0
HSL:4810220,Vierumäen koulu,60.35668,25.05364,"60.35668, 25.05364",C,BUS,44.0,460.0
HSL:4810221,Sotkatie,60.35993,25.06364,"60.35993, 25.06364",C,BUS,47.0,641.0
HSL:4810222,Kotkakuja,60.35894,25.06111,"60.35894, 25.06111",C,BUS,45.0,464.0
HSL:6300050,Dansbackantie,60.215929,24.088166,"60.215929, 24.088166",D,BUS,98.0,869.0
HSL:1122415,Karjalankatu,60.19244,24.936076,"60.19244, 24.936076",A,TRAM,18.0,95.0
HSL:1122416,Karjalankatu,60.19225,24.93641,"60.19225, 24.93641",A,TRAM,18.0,119.0
HSL:1291149,Ahjokuja,60.210334,24.891678,"60.210334, 24.891678",A,BUS,26.0,434.0
HSL:1291148,Laajasuontie,60.21565,24.90568,"60.21565, 24.90568",A,BUS,27.0,1159.0
HSL:1291145,Vanha Turun maantie,60.209844,24.890416,"60.209844, 24.890416",A,BUS,24.0,330.0
HSL:4660229,Honkakallionkuja,60.293636,25.091242,"60.293636, 25.091242",C,BUS,42.0,850.0
HSL:6300047,Pölansintie,60.169057,24.032409,"60.169057, 24.032409",D,BUS,165.0,728.0
HSL:1291144,Ruskeasuon varikko,60.208778,24.899522,"60.208778, 24.899522",A,BUS,26.0,538.0
HSL:6300045,Bocksintie,60.178602,24.047017,"60.178602, 24.047017",D,BUS,77.0,889.0
HSL:1291146,Ahjokuja,60.210257,24.891565,"60.210257, 24.891565",A,BUS,26.0,426.0
HSL:4810216,Laulurastaantie,60.346583,25.057448,"60.346583, 25.057448",C,BUS,54.0,426.0
HSL:4810217,Laulurastaanpolku,60.34571,25.05606,"60.34571, 25.05606",C,BUS,54.0,486.0
HSL:4810219,Vierumäen koulu,60.3572,25.05523,"60.3572, 25.05523",C,BUS,45.0,573.0
HSL:1291142,Haagan paloasema,60.209342,24.89309,"60.209342, 24.89309",A,BUS,27.0,462.0
HSL:4660221,Pavinpolku,60.29429,25.08505,"60.29429, 25.08505",C,BUS,39.0,373.0
HSL:4810212,Kulomäen koulu,60.34533,25.06672,"60.34533, 25.06672",C,BUS,50.0,1406.0
HSL:4810213,Kulomäen koulu,60.34548,25.06682,"60.34548, 25.06682",C,BUS,49.0,1383.0
HSL:4660220,Kankikuja,60.30781,25.09418,"60.30781, 25.09418",C,BUS,43.0,479.0
HSL:4810214,Maauuninkuja,60.34454,25.06311,"60.34454, 25.06311",C,BUS,53.0,1700.0
HSL:4660223,Sähkömetsä,60.29697,25.08562,"60.29697, 25.08562",C,BUS,39.0,347.0
HSL:4660222,Sähkömetsä,60.29623,25.08506,"60.29623, 25.08506",C,BUS,39.0,349.0
HSL:4810215,Maauuninkuja,60.34441,25.06396,"60.34441, 25.06396",C,BUS,53.0,1662.0
HSL:1531108,Merikorttitie,60.218564,25.129396,"60.218564, 25.129396",B,BUS,36.0,606.0
HSL:1531107,Merikorttitie,60.218662,25.12939,"60.218662, 25.12939",B,BUS,36.0,616.0
HSL:1531106,Isonvillasaarentie,60.22115,25.14206,"60.22115, 25.14206",B,BUS,41.0,596.0
HSL:4810210,Riekkotie,60.35169,25.06696,"60.35169, 25.06696",C,BUS,45.0,1100.0
HSL:1122400,Sturenkatu,60.190835,24.948841,"60.190835, 24.948841",A,TRAM,17.0,70.0
HSL:4810211,Riekkotie,60.35058,25.06713,"60.35058, 25.06713",C,BUS,47.0,1228.0
HSL:1531104,Punakiventie,60.21211,25.143058,"60.21211, 25.143058",B,BUS,34.0,896.0
HSL:1531103,Punakiventie,60.211633,25.143192,"60.211633, 25.143192",B,BUS,33.0,848.0
HSL:1531102,Vuosaari (M),60.206736,25.144743,"60.206736, 25.144743",B,BUS,26.0,371.0
HSL:1531109,Merikorttikuja,60.216127,25.128913,"60.216127, 25.128913",B,BUS,38.0,759.0
HSL:4980220,Nurmimäentie,60.27699,25.13448,"60.27699, 25.13448",C,BUS,50.0,328.0
HSL:1320120,Ruosilanpolku,60.239267,24.852589,"60.239267, 24.852589",B,BUS,31.0,171.0
HSL:1332108,Niittyluhdantie,60.23891,24.91547,"60.23891, 24.91547",B,BUS,29.0,440.0
HSL:1332109,Kaarelankulku,60.238575,24.897004,"60.238575, 24.897004",B,BUS,28.0,411.0
HSL:1332106,Kaarelanvierto,60.23566,24.90215,"60.23566, 24.90215",B,BUS,30.0,438.0
HSL:4400234,Kerkkäkuja,60.28367,24.90867,"60.28367, 24.90867",B,BUS,43.0,313.0
HSL:1291174,Laajasuon puisto,60.220608,24.891903,"60.220608, 24.891903",B,BUS,19.0,684.0
HSL:1332107,Niittyluhdantie,60.23894,24.91321,"60.23894, 24.91321",B,BUS,32.0,659.0
HSL:1291173,Eliel Saarisen tie,60.219858,24.894173,"60.219858, 24.894173",B,BUS,17.0,566.0
HSL:4400233,Ollaksentie,60.28471,24.91037,"60.28471, 24.91037",B,BUS,44.0,463.0
HSL:1291176,Nuijamiestenramppi,60.22041,24.90473,"60.22041, 24.90473",A,BUS,27.0,528.0
HSL:4400232,Ollaksentie,60.28534,24.90811,"60.28534, 24.90811",B,BUS,42.0,314.0
HSL:4400231,Kuulakamari,60.28004,24.90929,"60.28004, 24.90929",B,BUS,45.0,390.0
HSL:1291170,Mäkipellontie,60.21966,24.898517,"60.21966, 24.898517",A,BUS,21.0,850.0
HSL:4400237,Kääpäkuja,60.28461,24.90906,"60.28461, 24.90906",B,BUS,44.0,443.0
HSL:4400236,Kerkkätie,60.28289,24.90792,"60.28289, 24.90792",B,BUS,45.0,416.0
HSL:1291172,Eliel Saarisen tie,60.219671,24.894778,"60.219671, 24.894778",B,BUS,19.0,656.0
HSL:1291171,Mäkipellontie,60.219725,24.898578,"60.219725, 24.898578",A,BUS,22.0,865.0
HSL:1121105,Helsinginkatu,60.187467,24.95313,"60.187467, 24.95313",A,BUS,15.0,165.0
HSL:4400230,Kuulakamari,60.28031,24.90945,"60.28031, 24.90945",B,BUS,44.0,318.0
HSL:1320129,Riihipellontie,60.237466,24.842731,"60.237466, 24.842731",B,BUS,32.0,879.0
HSL:1320128,Konalantie,60.238051,24.845835,"60.238051, 24.845835",B,BUS,34.0,679.0
HSL:1320127,Tähkätie,60.235471,24.850569,"60.235471, 24.850569",B,BUS,33.0,964.0
HSL:1320126,Tähkätie,60.235462,24.850975,"60.235462, 24.850975",B,BUS,33.0,968.0
HSL:1320125,Konalan puisto,60.234563,24.853708,"60.234563, 24.853708",B,BUS,35.0,1142.0
HSL:1320124,Konalan puisto,60.234503,24.853478,"60.234503, 24.853478",B,BUS,35.0,1128.0
HSL:1121108,Fleminginkatu,60.1889,24.95285,"60.1889, 24.95285",A,BUS,14.0,56.0
HSL:1320123,Hankasuontie,60.24408,24.8468,"60.24408, 24.8468",B,BUS,35.0,338.0
HSL:1320131,Vitsastie,60.243767,24.839647,"60.243767, 24.839647",B,BUS,34.0,918.0
HSL:1320130,Käärtipolku,60.23657,24.842218,"60.23657, 24.842218",B,BUS,34.0,991.0
HSL:1291167,Ruskeasuon varikko,60.20825,24.89767,"60.20825, 24.89767",A,BUS,27.0,653.0
HSL:1291166,Tunnelitie,60.218634,24.900622,"60.218634, 24.900622",A,BUS,22.0,881.0
HSL:1291169,Oskelantie,60.217809,24.902551,"60.217809, 24.902551",A,BUS,25.0,989.0
HSL:1332119,Ladonlukonpolku,60.248958,24.905066,"60.248958, 24.905066",B,BUS,40.0,1342.0
HSL:1291168,Tunnelitie,60.218671,24.900889,"60.218671, 24.900889",A,BUS,23.0,892.0
HSL:1332117,Vannetie,60.251863,24.900143,"60.251863, 24.900143",B,BUS,38.0,1101.0
HSL:1291163,Ryytimaankuja,60.2163,24.90527,"60.2163, 24.90527",A,BUS,28.0,1204.0
HSL:1291162,Matkamiehentie,60.214704,24.902975,"60.214704, 24.902975",A,BUS,27.0,1136.0
HSL:1332118,Vannetie,60.251925,24.90009,"60.251925, 24.90009",B,BUS,38.0,1094.0
HSL:1332115,Juoksuhaudantie,60.249803,24.898572,"60.249803, 24.898572",B,BUS,35.0,906.0
HSL:1291165,Oskelantie,60.217587,24.902886,"60.217587, 24.902886",A,BUS,25.0,999.0
HSL:1332116,Juoksuhaudantie,60.249901,24.898707,"60.249901, 24.898707",B,BUS,35.0,893.0
HSL:1291164,Ryytimaankuja,60.216316,24.905322,"60.216316, 24.905322",A,BUS,28.0,1203.0
HSL:1332113,Kaarelantie,60.24563,24.89056,"60.24563, 24.89056",B,BUS,30.0,461.0
HSL:1332114,Kaarelantie,60.24402,24.89145,"60.24402, 24.89145",B,BUS,26.0,159.0
HSL:1291161,Matkamiehentie,60.214583,24.903102,"60.214583, 24.903102",A,BUS,27.0,1146.0
HSL:1332111,Raitamaantie,60.24143,24.89447,"60.24143, 24.89447",B,BUS,31.0,365.0
HSL:1332112,Raitamaantie,60.24126,24.89403,"60.24126, 24.89403",B,BUS,28.0,163.0
HSL:1291160,Sankaritie,60.215704,24.899828,"60.215704, 24.899828",A,BUS,24.0,922.0
HSL:1332110,Kaarelankulku,60.23788,24.89714,"60.23788, 24.89714",B,BUS,25.0,162.0
HSL:1320135,Soodakuja,60.238741,24.849398,"60.238741, 24.849398",B,BUS,33.0,880.0
HSL:1320134,Soodakuja,60.238677,24.849911,"60.238677, 24.849911",B,BUS,33.0,896.0
HSL:1320133,S-Market Konala,60.245633,24.84631,"60.245633, 24.84631",B,BUS,35.0,840.0
HSL:1320132,Vitsastie,60.243752,24.839943,"60.243752, 24.839943",B,BUS,35.0,917.0
HSL:6120208,Ängsdal,60.23477,24.458458,"60.23477, 24.458458",D,BUS,69.0,649.0
HSL:6120207,Haapapurontie,60.261485,24.476687,"60.261485, 24.476687",D,BUS,58.0,491.0
HSL:1291199,Kangaspellontie,60.21051,24.8858,"60.21051, 24.8858",A,BUS,25.0,383.0
HSL:6120209,Ängsdal,60.23508,24.458975,"60.23508, 24.458975",D,BUS,69.0,607.0
HSL:1020501,Helsinki,60.171298,24.941671,"60.171298, 24.941671",A,RAIL,1.0,113.0
HSL:2132243,Kilon asema,60.21708,24.78087,"60.21708, 24.78087",B,BUS,22.0,525.0
HSL:2132242,Kilon asema,60.21727,24.78061,"60.21727, 24.78061",B,BUS,22.0,540.0
HSL:2132241,Lansanpuro,60.217,24.77535,"60.217, 24.77535",B,BUS,26.0,801.0
HSL:1291198,Kangaspellontie,60.210445,24.885147,"60.210445, 24.885147",A,BUS,26.0,422.0
HSL:1020503,Helsinki,60.172992,24.942044,"60.172992, 24.942044",A,RAIL,4.0,305.0
HSL:1020502,Helsinki,60.17272,24.939911,"60.17272, 24.939911",A,RAIL,4.0,301.0
HSL:2132240,Lansanpuro,60.21709,24.77504,"60.21709, 24.77504",B,BUS,26.0,802.0
HSL:4600551,Hiekkaharju,60.303266,25.049019,"60.303266, 25.049019",C,RAIL,28.0,448.0
HSL:2132247,Kilontie,60.22037,24.7856,"60.22037, 24.7856",B,BUS,25.0,766.0
HSL:2132246,Kilontie,60.21935,24.78619,"60.21935, 24.78619",B,BUS,23.0,626.0
HSL:2132245,Trillakatu,60.21688,24.78694,"60.21688, 24.78694",B,BUS,24.0,639.0
HSL:2132244,Trillakatu,60.21692,24.78652,"60.21692, 24.78652",B,BUS,24.0,612.0
HSL:1121124,Sörnäinen (M),60.18788,24.9632,"60.18788, 24.9632",A,BUS,13.0,463.0
HSL:1473601,Kontula,60.23596,25.083694,"60.23596, 25.083694",B,SUBWAY,22.0,224.0
HSL:1320109,Ristipellontie,60.24161,24.84268,"60.24161, 24.84268",B,BUS,35.0,590.0
HSL:1473602,Kontula,60.235973,25.083677,"60.235973, 25.083677",B,SUBWAY,22.0,224.0
HSL:1320108,Ristipellontie,60.2415,24.84299,"60.2415, 24.84299",B,BUS,37.0,686.0
HSL:1473603,Mellunmäki,60.238896,25.110213,"60.238896, 25.110213",B,SUBWAY,24.0,224.0
HSL:1320107,Riihipellontie,60.239,24.84645,"60.239, 24.84645",B,BUS,36.0,780.0
HSL:2331211,Lukutori,60.186573,24.743208,"60.186573, 24.743208",B,BUS,35.0,377.0
HSL:1473604,Mellunmäki,60.238916,25.110188,"60.238916, 25.110188",B,SUBWAY,24.0,224.0
HSL:6120215,Tampajantie,60.246252,24.444307,"60.246252, 24.444307",D,BUS,67.0,712.0
HSL:6120214,Tampajantie,60.247022,24.44486,"60.247022, 24.44486",D,BUS,66.0,607.0
HSL:1320105,Riihipellontie,60.23761,24.84672,"60.23761, 24.84672",B,BUS,35.0,684.0
HSL:1320104,Tähkätie,60.23512,24.84651,"60.23512, 24.84651",B,BUS,33.0,588.0
HSL:6120217,Haapajärvi,60.251363,24.450832,"60.251363, 24.450832",D,BUS,66.0,618.0
HSL:6120216,Haapajärvi,60.250706,24.449823,"60.250706, 24.449823",D,BUS,68.0,728.0
HSL:1320103,Tähkätie,60.23558,24.84705,"60.23558, 24.84705",B,BUS,34.0,660.0
HSL:1320102,Vähäntuvantie,60.23233,24.84636,"60.23233, 24.84636",B,BUS,29.0,483.0
HSL:6120211,Forsdal,60.23933,24.458377,"60.23933, 24.458377",D,BUS,68.0,607.0
HSL:1320101,Vähäntuvantie,60.23253,24.84661,"60.23253, 24.84661",B,BUS,29.0,520.0
HSL:6120210,Forsdal,60.238305,24.458798,"60.238305, 24.458798",D,BUS,69.0,730.0
HSL:6120213,Hellapolku,60.242155,24.45414,"60.242155, 24.45414",D,BUS,68.0,607.0
HSL:6120212,Hellapolku,60.242267,24.452827,"60.242267, 24.452827",D,BUS,69.0,680.0
HSL:9610300,Hermanni,60.535606,25.005515,"60.535606, 25.005515",D,BUS,66.0,279.0
HSL:9610302,Huikko,60.538897,24.998461,"60.538897, 24.998461",D,BUS,65.0,279.0
HSL:9610301,Hermanni,60.535176,25.006512,"60.535176, 25.006512",D,BUS,67.0,352.0
HSL:9610304,Hämäläisenmutka,60.538221,24.958512,"60.538221, 24.958512",D,BUS,52.0,350.0
HSL:9610303,Huikko,60.538583,24.999092,"60.538583, 24.999092",D,BUS,66.0,329.0
HSL:1291181,Karvaamokuja,60.2157,24.883323,"60.2157, 24.883323",B,BUS,24.0,161.0
HSL:9610305,Hämäläisenmutka,60.537836,24.958174,"60.537836, 24.958174",D,BUS,52.0,348.0
HSL:1291180,Karvaamokuja,60.215128,24.884162,"60.215128, 24.884162",B,BUS,25.0,1066.0
HSL:1291183,Valimokuja,60.21865,24.8815,"60.21865, 24.8815",B,BUS,25.0,159.0
HSL:9610308,Kuorontie,60.535797,24.957163,"60.535797, 24.957163",D,BUS,53.0,358.0
HSL:1291182,Valimokuja,60.21988,24.88124,"60.21988, 24.88124",B,BUS,26.0,1031.0
HSL:1122447,Linnanmäki (etelä),60.18603,24.94126,"60.18603, 24.94126",A,TRAM,16.0,449.0
HSL:1320119,Ruosilanpolku,60.2387,24.85418,"60.2387, 24.85418",B,BUS,34.0,408.0
HSL:1122440,Alppila,60.19081,24.94525,"60.19081, 24.94525",A,TRAM,15.0,116.0
HSL:1320118,Vuorikummuntie,60.232886,24.849148,"60.232886, 24.849148",B,BUS,32.0,656.0
HSL:1122441,Alppila,60.19058,24.94568,"60.19058, 24.94568",A,TRAM,14.0,59.0
HSL:6120204,Kolmiranta,60.255067,24.504023,"60.255067, 24.504023",D,BUS,56.0,491.0
HSL:1320117,Vuorikummuntie,60.232967,24.850635,"60.232967, 24.850635",B,BUS,37.0,882.0
HSL:6120203,Kolmiranta,60.255567,24.503348,"60.255567, 24.503348",D,BUS,57.0,556.0
HSL:6120206,Hauklammentie,60.258358,24.49241,"60.258358, 24.49241",D,BUS,57.0,491.0
HSL:6120205,Hauklammentie,60.258547,24.491167,"60.258547, 24.491167",D,BUS,58.0,562.0
HSL:6120202,Lohantie,60.25979,24.432345,"60.25979, 24.432345",D,BUS,70.0,523.0
HSL:1320111,Hankasuontie,60.24432,24.8467,"60.24432, 24.8467",B,BUS,36.0,379.0
HSL:6120201,Lohantie,60.259133,24.432048,"60.259133, 24.432048",D,BUS,71.0,598.0
HSL:2132228,Karaniitty,60.22098,24.76128,"60.22098, 24.76128",B,BUS,35.0,1296.0
HSL:2132226,Karamalmens skola,60.223568,24.760402,"60.223568, 24.760402",B,BUS,30.0,496.0
HSL:2132225,Karamalmens skola,60.22342,24.76031,"60.22342, 24.76031",B,BUS,31.0,545.0
HSL:1171402,Ilmalantori,60.207065,24.919913,"60.207065, 24.919913",A,TRAM,17.0,664.0
HSL:1171405,Maistraatintori,60.19856,24.925323,"60.19856, 24.925323",A,TRAM,15.0,692.0
HSL:4400209,Peltovuorentie,60.28334,24.91922,"60.28334, 24.91922",B,BUS,44.0,411.0
HSL:4400208,Pukkivuorentie,60.28435,24.91312,"60.28435, 24.91312",B,BUS,43.0,313.0
HSL:4400207,Vanhatie,60.28403,24.91526,"60.28403, 24.91526",B,BUS,45.0,445.0
HSL:4400206,Malmirajantie,60.286211,24.902186,"60.286211, 24.902186",B,BUS,41.0,314.0
HSL:1020552,Helsinki,60.172725,24.939595,"60.172725, 24.939595",A,RAIL,4.0,313.0
HSL:1020551,Helsinki,60.1713,24.941401,"60.1713, 24.941401",A,RAIL,1.0,114.0
HSL:1020553,Helsinki,60.172987,24.941576,"60.172987, 24.941576",A,RAIL,4.0,297.0
HSL:1121130,Sörnäinen (M),60.188606,24.96391,"60.188606, 24.96391",A,BUS,14.0,407.0
HSL:1332159,Kaarelankuja,60.23883,24.90236,"60.23883, 24.90236",B,BUS,30.0,566.0
HSL:4400205,Malmirajantie,60.28585,24.90463,"60.28585, 24.90463",B,BUS,43.0,465.0
HSL:4400204,Silvolantie,60.28642,24.89658,"60.28642, 24.89658",B,BUS,42.0,374.0
HSL:2132235,Kilonkartano,60.22324,24.78682,"60.22324, 24.78682",B,BUS,30.0,1111.0
HSL:4400203,Silvolantie,60.28632,24.89784,"60.28632, 24.89784",B,BUS,43.0,422.0
HSL:2132207,Karanristi,60.22572,24.75756,"60.22572, 24.75756",B,BUS,36.0,652.0
HSL:2132206,Kuninkainen,60.225743,24.766743,"60.225743, 24.766743",B,BUS,28.0,488.0
HSL:4400219,Lehtikummuntie,60.279784,24.918783,"60.279784, 24.918783",B,BUS,48.0,497.0
HSL:2132205,Kuninkainen,60.22578,24.76438,"60.22578, 24.76438",B,BUS,30.0,622.0
HSL:4400218,Lehtikummuntie,60.27961,24.9164,"60.27961, 24.9164",B,BUS,46.0,344.0
HSL:4400217,Isonmännyntie,60.28097,24.92297,"60.28097, 24.92297",B,BUS,46.0,412.0
HSL:4980202,Mäyrämäentie,60.29776,25.12568,"60.29776, 25.12568",C,BUS,49.0,1175.0
HSL:4980201,Oravamäentie,60.2977,25.12546,"60.2977, 25.12546",C,BUS,49.0,1129.0
HSL:2132209,Karaniitty,60.22036,24.76229,"60.22036, 24.76229",B,BUS,34.0,1278.0
HSL:2132208,Karanristi,60.225528,24.760625,"60.225528, 24.760625",B,BUS,29.0,486.0
HSL:4980206,Tuliniementie,60.29396,25.13554,"60.29396, 25.13554",C,BUS,51.0,306.0
HSL:4400212,Isonmännyntie,60.28157,24.92342,"60.28157, 24.92342",B,BUS,44.0,314.0
HSL:4400211,Isonmännyntie,60.28074,24.92412,"60.28074, 24.92412",B,BUS,46.0,432.0
HSL:1332129,Kaarelantie,60.24566,24.89263,"60.24566, 24.89263",B,BUS,31.0,465.0
HSL:4980205,Tuliniementie,60.29406,25.13442,"60.29406, 25.13442",C,BUS,50.0,245.0
HSL:4980204,Nikuksentie,60.29711,25.12958,"60.29711, 25.12958",C,BUS,52.0,1363.0
HSL:4400210,Peltovuorentie,60.28386,24.918,"60.28386, 24.918",B,BUS,43.0,315.0
HSL:4980203,Nikuksentie,60.297,25.12953,"60.297, 25.12953",C,BUS,52.0,1367.0
HSL:4400216,Ruutintie,60.28215,24.93696,"60.28215, 24.93696",B,BUS,48.0,383.0
HSL:1332124,Kasemattikuja,60.243589,24.903085,"60.243589, 24.903085",B,BUS,39.0,1045.0
HSL:2132202,Kilonkartano,60.223593,24.788593,"60.223593, 24.788593",B,BUS,31.0,1215.0
HSL:4980209,Kalkkiuunintie,60.28843,25.13889,"60.28843, 25.13889",C,BUS,51.0,256.0
HSL:4400215,Ruutintie,60.28249,24.93814,"60.28249, 24.93814",B,BUS,48.0,395.0
HSL:1332122,Turvapolku,60.246062,24.905048,"60.246062, 24.905048",B,BUS,42.0,1334.0
HSL:2132201,Kilonkartano,60.22379,24.78607,"60.22379, 24.78607",B,BUS,31.0,1187.0
HSL:4400214,Tolkinkyläntie,60.28078,24.92756,"60.28078, 24.92756",B,BUS,47.0,374.0
HSL:4980208,Sepänrinne,60.29297,25.13781,"60.29297, 25.13781",C,BUS,50.0,311.0
HSL:4980207,Sepänmäki,60.29198,25.13955,"60.29198, 25.13955",C,BUS,49.0,245.0
HSL:4400213,Tolkinkyläntie,60.28074,24.92886,"60.28074, 24.92886",B,BUS,47.0,409.0
HSL:1332123,Kasemattikuja,60.243589,24.903067,"60.243589, 24.903067",B,BUS,39.0,1044.0
HSL:1332120,Ladonlukonpolku,60.249116,24.904591,"60.249116, 24.904591",B,BUS,40.0,1317.0
HSL:1332121,Turvapolku,60.24667,24.90539,"60.24667, 24.90539",B,BUS,46.0,1689.0
HSL:9640116,Lepomäentie,60.462947,24.931136,"60.462947, 24.931136",D,BUS,71.0,264.0
HSL:4980213,Nurmimäentie,60.27735,25.13335,"60.27735, 25.13335",C,BUS,49.0,256.0
HSL:9640111,Peltokarintie,60.45923,24.943752,"60.45923, 24.943752",D,BUS,70.0,261.0
HSL:4980212,Mäntykummuntie,60.28507,25.13526,"60.28507, 25.13526",C,BUS,52.0,321.0
HSL:9640112,Rannikonmäki,60.460283,24.937101,"60.460283, 24.937101",D,BUS,70.0,261.0
HSL:4980211,Mäntykummuntie,60.28449,25.13485,"60.28449, 25.13485",C,BUS,51.0,256.0
HSL:4980210,Kalkkiuunintie,60.2892,25.13926,"60.2892, 25.13926",C,BUS,55.0,738.0
HSL:2132210,Nihtimäki,60.21233,24.7638,"60.21233, 24.7638",B,BUS,34.0,1222.0
HSL:4980217,Nybyggetinkuja,60.284386,25.182872,"60.284386, 25.182872",C,BUS,51.0,263.0
HSL:4980216,Kuusikorvenkuja,60.28252,25.15787,"60.28252, 25.15787",C,BUS,48.0,256.0
HSL:4400222,Lehtikummunkuja,60.27924,24.91367,"60.27924, 24.91367",B,BUS,48.0,518.0
HSL:4400221,Lumijälki,60.29187,24.931586,"60.29187, 24.931586",B,BUS,47.0,419.0
HSL:1332138,Kaarelanvierto,60.236106,24.90268,"60.236106, 24.90268",B,BUS,31.0,477.0
HSL:4980214,Nurmimäentie,60.27794,25.13378,"60.27794, 25.13378",C,BUS,51.0,372.0
HSL:2132214,Kelkkamäentie,60.22026,24.76504,"60.22026, 24.76504",B,BUS,37.0,1443.0
HSL:2132213,Kelkkamäentie,60.21915,24.76594,"60.21915, 24.76594",B,BUS,36.0,1534.0
HSL:4400226,Lumijälki,60.292844,24.930173,"60.292844, 24.930173",B,BUS,46.0,320.0
HSL:4980219,Sepänrinne,60.29327,25.13677,"60.29327, 25.13677",C,BUS,55.0,644.0
HSL:2132212,Lansanportti,60.21588,24.76508,"60.21588, 24.76508",B,BUS,32.0,1101.0
HSL:4980218,Sepänmäki,60.29201,25.13969,"60.29201, 25.13969",C,BUS,55.0,650.0
HSL:2132211,Lansanportti,60.21481,24.76384,"60.21481, 24.76384",B,BUS,31.0,1063.0
HSL:9700215,Nurmijärvi th.,60.458394,24.832769,"60.458394, 24.832769",Ei HSL,BUS,78.0,773.0
HSL:2621205,Nimismiehenmäki,60.21468,24.64968,"60.21468, 24.64968",C,BUS,51.0,1912.0
HSL:2723231,Haarssintie,60.323625,24.715846,"60.323625, 24.715846",C,BUS,64.0,1229.0
HSL:2621206,Muuralankumpu,60.21173,24.64243,"60.21173, 24.64243",C,BUS,47.0,1198.0
HSL:9700216,Pekontie,60.458368,24.825918,"60.458368, 24.825918",Ei HSL,BUS,74.0,473.0
HSL:2723232,Haarssintie,60.32392,24.714924,"60.32392, 24.714924",C,BUS,65.0,1280.0
HSL:9700217,Pekontie,60.458536,24.825953,"60.458536, 24.825953",Ei HSL,BUS,73.0,375.0
HSL:2621207,Muuralankumpu,60.21239,24.64336,"60.21239, 24.64336",C,BUS,47.0,553.0
HSL:2621208,Mickelsinkuja,60.207285,24.640634,"60.207285, 24.640634",C,BUS,43.0,1637.0
HSL:2723230,Kurkijärvi,60.31757,24.71609,"60.31757, 24.71609",C,BUS,55.0,504.0
HSL:9700218,Heikkiläntie,60.459261,24.817676,"60.459261, 24.817676",Ei HSL,BUS,71.0,221.0
HSL:2723235,Ilveksenkuja,60.33417,24.71006,"60.33417, 24.71006",C,BUS,60.0,176.0
HSL:9700219,Heikkiläntie,60.459494,24.817921,"60.459494, 24.817921",Ei HSL,BUS,78.0,812.0
HSL:2723236,Ilveksenkuja,60.33429,24.70989,"60.33429, 24.70989",C,BUS,60.0,159.0
HSL:2621202,Muuralansilta,60.20934,24.64173,"60.20934, 24.64173",C,BUS,43.0,1693.0
HSL:2723233,Kurjenkaski,60.32928,24.71024,"60.32928, 24.71024",C,BUS,76.0,1160.0
HSL:2621203,Muuralansilta,60.208636,24.642381,"60.208636, 24.642381",C,BUS,42.0,1602.0
HSL:2621204,Nimismiehenmäki,60.21482,24.64804,"60.21482, 24.64804",C,BUS,52.0,1988.0
HSL:2723234,Kurjenkaski,60.32961,24.70996,"60.32961, 24.70996",C,BUS,76.0,1198.0
HSL:2711269,Pakankylän koulu,60.2839,24.67614,"60.2839, 24.67614",C,BUS,75.0,512.0
HSL:9700210,Haavistontie,60.435048,24.839434,"60.435048, 24.839434",Ei HSL,BUS,68.0,221.0
HSL:6090230,Järsö,60.052577,24.499713,"60.052577, 24.499713",D,BUS,66.0,684.0
HSL:9700211,Jukola,60.43794,24.831251,"60.43794, 24.831251",Ei HSL,BUS,70.0,339.0
HSL:2621209,Mikkeläntörmä,60.20362,24.63538,"60.20362, 24.63538",C,BUS,45.0,1769.0
HSL:1370501,Pukinmäki,60.242263,24.993811,"60.242263, 24.993811",B,RAIL,16.0,312.0
HSL:9700212,Jukola,60.436974,24.832013,"60.436974, 24.832013",Ei HSL,BUS,69.0,243.0
HSL:6090231,Storkanskog,60.02247,24.482435,"60.02247, 24.482435",D,BUS,69.0,511.0
HSL:9700213,Ilvesvuori,60.443375,24.833283,"60.443375, 24.833283",Ei HSL,BUS,71.0,327.0
HSL:9700214,Ilvesvuori,60.444095,24.833187,"60.444095, 24.833187",Ei HSL,BUS,69.0,223.0
HSL:5020553,Lahti,60.976337,25.657575,"60.976337, 25.657575",Ei HSL,RAIL,66.0,114.0
HSL:6090223,Sperrings,60.07712,24.501165,"60.07712, 24.501165",D,BUS,59.0,588.0
HSL:5020554,Kouvola,60.86537,26.70497,"60.86537, 26.70497",Ei HSL,RAIL,105.0,114.0
HSL:6090224,Sperrings,60.077937,24.501228,"60.077937, 24.501228",D,BUS,58.0,498.0
HSL:5020551,Haarajoki,60.496783,25.133833,"60.496783, 25.133833",D,RAIL,32.0,114.0
HSL:6090221,Piispankylä,60.070387,24.496762,"60.070387, 24.496762",D,BUS,60.0,498.0
HSL:6090222,Piispankylä,60.071335,24.495877,"60.071335, 24.495877",D,BUS,62.0,616.0
HSL:5020552,Mäntsälä,60.647434,25.307804,"60.647434, 25.307804",Ei HSL,RAIL,42.0,114.0
HSL:6090227,Gunnarskulla,60.085263,24.500833,"60.085263, 24.500833",D,BUS,57.0,498.0
HSL:5020557,Villähde,60.94661,25.82572,"60.94661, 25.82572",Ei HSL,RAIL,83.0,114.0
HSL:2711268,Uusitorppa,60.273982,24.656519,"60.273982, 24.656519",C,BUS,54.0,569.0
HSL:5020558,Nastola,60.935697,25.935191,"60.935697, 25.935191",Ei HSL,RAIL,88.0,114.0
HSL:2711267,Kaisankoti,60.27483,24.66649,"60.27483, 24.66649",C,BUS,54.0,512.0
HSL:6090228,Gunnarskulla,60.085615,24.500817,"60.085615, 24.500817",D,BUS,57.0,535.0
HSL:2711266,Kaisankoti,60.274805,24.667812,"60.274805, 24.667812",C,BUS,55.0,588.0
HSL:6090225,Sperrings sund,60.081038,24.497378,"60.081038, 24.497378",D,BUS,58.0,498.0
HSL:5020556,Henna,60.799688,25.494904,"60.799688, 25.494904",Ei HSL,RAIL,53.0,114.0
HSL:6090226,Sperrings sund,60.08123,24.496783,"60.08123, 24.496783",D,BUS,58.0,534.0
HSL:2723239,Karlberg,60.34191,24.71348,"60.34191, 24.71348",C,BUS,61.0,184.0
HSL:1411551,Puistola,60.276015,25.036812,"60.276015, 25.036812",B,RAIL,22.0,297.0
HSL:6090229,Matta,60.091498,24.502918,"60.091498, 24.502918",D,BUS,56.0,498.0
HSL:2723237,Kytömaa,60.33689,24.71032,"60.33689, 24.71032",C,BUS,60.0,167.0
HSL:2723238,Kytömaa,60.3368,24.71016,"60.3368, 24.71016",C,BUS,60.0,159.0
HSL:9700204,Palojoki,60.420723,24.86875,"60.420723, 24.86875",Ei HSL,BUS,65.0,257.0
HSL:2621216,Mikkeläntie,60.206674,24.639242,"60.206674, 24.639242",C,BUS,42.0,1601.0
HSL:2723242,Kytöpellontie,60.34457,24.72664,"60.34457, 24.72664",C,BUS,62.0,159.0
HSL:2621217,Pitäjänportti,60.20649,24.64021,"60.20649, 24.64021",C,BUS,42.0,1569.0
HSL:2723243,Hännikäinen,60.34598,24.7317,"60.34598, 24.7317",C,BUS,62.0,168.0
HSL:9700205,Palokaivonkuja,60.425405,24.860073,"60.425405, 24.860073",Ei HSL,BUS,67.0,336.0
HSL:1520703,"Suomenlinna, huoltol",60.146423,24.992447,"60.146423, 24.992447",A,FERRY,40.0,1759.0
HSL:2621218,Mikkeläntörmä,60.20277,24.63325,"60.20277, 24.63325",C,BUS,46.0,1911.0
HSL:9700206,Palokaivonkuja,60.424275,24.860745,"60.424275, 24.860745",Ei HSL,BUS,65.0,241.0
HSL:2723240,Karlberg,60.34214,24.71353,"60.34214, 24.71353",C,BUS,61.0,159.0
HSL:9700207,Talvitie,60.432116,24.853236,"60.432116, 24.853236",Ei HSL,BUS,68.0,324.0
HSL:2723241,Kytöpellontie,60.3446,24.72721,"60.3446, 24.72721",C,BUS,63.0,159.0
HSL:2621219,Mustarinne,60.20235,24.63106,"60.20235, 24.63106",C,BUS,48.0,1245.0
HSL:2723246,Ånäs,60.35487,24.69083,"60.35487, 24.69083",C,BUS,62.0,207.0
HSL:9700208,Talvitie,60.431394,24.853921,"60.431394, 24.853921",Ei HSL,BUS,67.0,247.0
HSL:2621212,Hollimäki,60.19974,24.62609,"60.19974, 24.62609",C,BUS,50.0,649.0
HSL:9700209,Haavistontie,60.43548,24.838301,"60.43548, 24.838301",Ei HSL,BUS,70.0,311.0
HSL:2723244,Koirankorpi,60.34567,24.73115,"60.34567, 24.73115",C,BUS,62.0,162.0
HSL:2621215,Mickelsinkuja,60.207497,24.640813,"60.207497, 24.640813",C,BUS,43.0,1707.0
HSL:5020559,Uusikylä,60.9278,25.99347,"60.9278, 25.99347",Ei HSL,RAIL,91.0,114.0
HSL:9700200,Nurmijärvi,60.462496,24.808243,"60.462496, 24.808243",Ei HSL,BUS,72.0,221.0
HSL:6090241,Hirvikalliontie,60.030105,24.483945,"60.030105, 24.483945",D,BUS,68.0,559.0
HSL:6090242,Kesäsiirtola,60.00507,24.453577,"60.00507, 24.453577",D,BUS,73.0,498.0
HSL:9700201,Paloonmäki,60.413764,24.877054,"60.413764, 24.877054",Ei HSL,BUS,65.0,364.0
HSL:1520702,"Suomenlinna, päälait",60.149269,24.98389,"60.149269, 24.98389",A,FERRY,30.0,1059.0
HSL:9700202,Paloonmäki,60.412819,24.878622,"60.412819, 24.878622",Ei HSL,BUS,64.0,247.0
HSL:6090240,Andersberg,60.036238,24.489898,"60.036238, 24.489898",D,BUS,66.0,498.0
HSL:9700203,Palojoki,60.421867,24.867072,"60.421867, 24.867072",Ei HSL,BUS,67.0,403.0
HSL:6090234,Bölentie,60.0163,24.47546,"60.0163, 24.47546",D,BUS,70.0,498.0
HSL:6090232,Rigårdsnäs,59.998753,24.449967,"59.998753, 24.449967",D,BUS,74.0,498.0
HSL:6090233,Grållas,60.009204,24.454296,"60.009204, 24.454296",D,BUS,72.0,498.0
HSL:6090238,Månvik,60.039238,24.492443,"60.039238, 24.492443",D,BUS,66.0,498.0
HSL:6090239,Andersberg,60.036207,24.489501,"60.036207, 24.489501",D,BUS,66.0,514.0
HSL:6090237,Häggesböle,60.042203,24.494565,"60.042203, 24.494565",D,BUS,65.0,498.0
HSL:2621210,Mikkelänpelto,60.20425,24.63749,"60.20425, 24.63749",C,BUS,43.0,1624.0
HSL:2621211,Hollimäki,60.20018,24.62665,"60.20018, 24.62665",C,BUS,49.0,663.0
HSL:5020560,Kausala,60.88537,26.32964,"60.88537, 26.32964",Ei HSL,RAIL,103.0,114.0
HSL:5020561,Koria,60.84712,26.60125,"60.84712, 26.60125",Ei HSL,RAIL,113.0,114.0
HSL:1382501,Malmi,60.25098,25.010696,"60.25098, 25.010696",B,RAIL,19.0,388.0
HSL:6090245,Lillkanskog,60.007047,24.455363,"60.007047, 24.455363",D,BUS,76.0,517.0
HSL:6090246,Porkkalantie 1544,60.009741,24.457476,"60.009741, 24.457476",D,BUS,72.0,498.0
HSL:6090243,Kesäsiirtola,60.005103,24.45333,"60.005103, 24.45333",D,BUS,73.0,515.0
HSL:6090244,Lillkanskog,60.007402,24.455442,"60.007402, 24.455442",D,BUS,73.0,498.0
HSL:6090249,Porkkalantie 1443,60.014982,24.470494,"60.014982, 24.470494",D,BUS,71.0,499.0
HSL:4520217,Äyrikuja,60.297895,24.959368,"60.297895, 24.959368",C,BUS,49.0,732.0
HSL:6090248,Porkkalantie 1443,60.014973,24.470458,"60.014973, 24.470458",D,BUS,71.0,498.0
HSL:4520219,Äyritie,60.29413,24.97213,"60.29413, 24.97213",C,BUS,41.0,204.0
HSL:4520213,Pyhtäänkorvenkuja,60.29937,24.9685,"60.29937, 24.9685",C,BUS,48.0,850.0
HSL:4520215,Tuulensuuntie,60.29537,24.94262,"60.29537, 24.94262",B,BUS,49.0,450.0
HSL:2711281,Pakankylän koulu,60.28358,24.67581,"60.28358, 24.67581",C,BUS,76.0,551.0
HSL:4520210,Äyritie,60.29319,24.97148,"60.29319, 24.97148",C,BUS,43.0,320.0
HSL:2723262,Snäckens,60.3486,24.69945,"60.3486, 24.69945",C,BUS,82.0,1613.0
HSL:2723261,Snäckens,60.34888,24.69919,"60.34888, 24.69919",C,BUS,82.0,1579.0
HSL:2711275,Röylänristi,60.29623,24.6991,"60.29623, 24.6991",C,BUS,67.0,588.0
HSL:2711274,Röylänristi,60.29655,24.69787,"60.29655, 24.69787",C,BUS,66.0,512.0
HSL:2711273,Kaurasuontie,60.303357,24.68141,"60.303357, 24.68141",C,BUS,67.0,225.0
HSL:2711272,Kaurasuontie,60.304005,24.681398,"60.304005, 24.681398",C,BUS,68.0,295.0
HSL:2711277,Punametsä,60.28582,24.70576,"60.28582, 24.70576",C,BUS,60.0,547.0
HSL:2711276,Punametsänristi,60.28525,24.70586,"60.28525, 24.70586",C,BUS,59.0,485.0
HSL:2711271,Niittyveräjä,60.28908,24.67804,"60.28908, 24.67804",C,BUS,74.0,512.0
HSL:2711270,Niittyveräjä,60.28965,24.67744,"60.28965, 24.67744",C,BUS,75.0,583.0
HSL:2621249,Lanttikatu,60.207939,24.630459,"60.207939, 24.630459",C,BUS,44.0,912.0
HSL:2723275,Ketunkorpi,60.3427,24.70397,"60.3427, 24.70397",C,BUS,71.0,959.0
HSL:2723276,Mäyränkuja,60.34047,24.70653,"60.34047, 24.70653",C,BUS,67.0,638.0
HSL:2723273,Ketunkorpi,60.34273,24.70409,"60.34273, 24.70409",C,BUS,71.0,961.0
HSL:2723274,Rajapyörre,60.34616,24.70221,"60.34616, 24.70221",C,BUS,85.0,1590.0
HSL:2723279,Mäyränkuja,60.34035,24.70672,"60.34035, 24.70672",C,BUS,67.0,624.0
HSL:2621246,Rintamäentanhua,60.21587,24.62644,"60.21587, 24.62644",C,BUS,46.0,858.0
HSL:2723277,Hepomäki,60.327726,24.717678,"60.327726, 24.717678",C,BUS,68.0,488.0
HSL:2723278,Hepomäki,60.32804,24.71869,"60.32804, 24.71869",C,BUS,69.0,567.0
HSL:5020506,Henna,60.799678,25.494995,"60.799678, 25.494995",Ei HSL,RAIL,53.0,119.0
HSL:4700234,Leinelänkaari,60.326031,25.04201,"60.326031, 25.04201",C,BUS,38.0,848.0
HSL:5020507,Villähde,60.94658,25.82572,"60.94658, 25.82572",Ei HSL,RAIL,92.0,719.0
HSL:5020504,Kouvola,60.86526,26.705,"60.86526, 26.705",Ei HSL,RAIL,105.0,126.0
HSL:2723271,Rajapyörre,60.34615,24.70234,"60.34615, 24.70234",C,BUS,85.0,1579.0
HSL:2723272,Ånäs,60.35454,24.69139,"60.35454, 24.69139",C,BUS,62.0,159.0
HSL:5020508,Nastola,60.935659,25.935156,"60.935659, 25.935156",Ei HSL,RAIL,88.0,115.0
HSL:5020509,Uusikylä,60.92765,25.9945,"60.92765, 25.9945",Ei HSL,RAIL,96.0,431.0
HSL:2633259,Hanabäck,60.24277,24.6883,"60.24277, 24.6883",C,BUS,56.0,502.0
HSL:5020510,Kausala,60.88524,26.33019,"60.88524, 26.33019",Ei HSL,RAIL,107.0,358.0
HSL:2633258,Hanabäck,60.24266,24.6883,"60.24266, 24.6883",C,BUS,56.0,485.0
HSL:4700231,Leineläntie,60.323717,25.039283,"60.323717, 25.039283",C,BUS,33.0,545.0
HSL:4700230,Leineläntie,60.323644,25.038948,"60.323644, 25.038948",C,BUS,33.0,523.0
HSL:4700233,Leinelänkaari,60.325262,25.041532,"60.325262, 25.041532",C,BUS,36.0,752.0
HSL:5020511,Koria,60.84715,26.60152,"60.84715, 26.60152",Ei HSL,RAIL,119.0,465.0
HSL:1320206,Aittatie,60.23309,24.84555,"60.23309, 24.84555",B,BUS,30.0,502.0
HSL:4700232,Koivutaival,60.326547,25.0421,"60.326547, 25.0421",C,BUS,38.0,899.0
HSL:1320205,Aittatie,60.23306,24.84472,"60.23306, 24.84472",B,BUS,29.0,445.0
HSL:4700224,Koivutie,60.32183,25.04486,"60.32183, 25.04486",C,BUS,38.0,881.0
HSL:4700223,Haapatie,60.32062,25.05047,"60.32062, 25.05047",C,BUS,41.0,1101.0
HSL:4700226,Leinelä,60.32334,25.03762,"60.32334, 25.03762",C,BUS,32.0,481.0
HSL:9610205,Jokelan asema,60.552142,24.97042,"60.552142, 24.97042",D,BUS,45.0,390.0
HSL:4700225,Leinelä,60.32362,25.03701,"60.32362, 25.03701",C,BUS,33.0,539.0
HSL:9610204,Jokelan asema,60.552855,24.969382,"60.552855, 24.969382",D,BUS,45.0,345.0
HSL:2723282,Kuonomäensilta,60.35718,24.68554,"60.35718, 24.68554",C,BUS,86.0,1969.0
HSL:4700228,Leinelän asema,60.32246,25.042177,"60.32246, 25.042177",C,BUS,35.0,713.0
HSL:4700227,Epinkoskentie,60.32441,25.02678,"60.32441, 25.02678",C,BUS,43.0,1224.0
HSL:2723283,Serena,60.32415,24.73677,"60.32415, 24.73677",C,BUS,71.0,498.0
HSL:2723280,Lankela,60.35762,24.672833,"60.35762, 24.672833",C,BUS,80.0,1579.0
HSL:4700229,Leinelän asema,60.322323,25.042012,"60.322323, 25.042012",C,BUS,33.0,576.0
HSL:4700222,Koivutie,60.32129,25.04674,"60.32129, 25.04674",C,BUS,38.0,918.0
HSL:2621227,Pitäjänportti,60.20734,24.63928,"60.20734, 24.63928",C,BUS,42.0,1637.0
HSL:2621228,Mikkelänkallio,60.20933,24.63587,"60.20933, 24.63587",C,BUS,40.0,642.0
HSL:2621223,Muurahaisentie,60.21355,24.6296,"60.21355, 24.6296",C,BUS,40.0,494.0
HSL:2621224,Muurahaisentie,60.2142,24.62969,"60.2142, 24.62969",C,BUS,41.0,589.0
HSL:2621225,Mikkelänkallio,60.20841,24.63715,"60.20841, 24.63715",C,BUS,40.0,599.0
HSL:9700230,Pertuntie,60.524537,24.924519,"60.524537, 24.924519",D,BUS,57.0,443.0
HSL:2723290,Manninpelto,60.32206,24.71847,"60.32206, 24.71847",C,BUS,62.0,1060.0
HSL:4700212,Koivukylän puistotie,60.32442,25.05655,"60.32442, 25.05655",C,BUS,35.0,621.0
HSL:4700215,Raitatie,60.31732,25.04971,"60.31732, 25.04971",C,BUS,45.0,1370.0
HSL:9700231,Perttu th,60.5257,24.925794,"60.5257, 24.925794",D,BUS,55.0,279.0
HSL:4700214,Raitatie,60.31738,25.04942,"60.31738, 25.04942",C,BUS,46.0,1417.0
HSL:9610218,Riihihaanpolku,60.550927,24.965158,"60.550927, 24.965158",D,BUS,50.0,701.0
HSL:2723293,Hotelli Korpilampi,60.32517,24.7268,"60.32517, 24.7268",C,BUS,69.0,498.0
HSL:4700216,Koivukylänväylä,60.31977,25.05094,"60.31977, 25.05094",C,BUS,41.0,1104.0
HSL:2723291,Manninpelto,60.32192,24.71927,"60.32192, 24.71927",C,BUS,63.0,1085.0
HSL:4700219,Koivukylänväylä,60.31986,25.05256,"60.31986, 25.05256",C,BUS,41.0,1071.0
HSL:9610219,Riihihaanpolku,60.551364,24.965102,"60.551364, 24.965102",D,BUS,49.0,643.0
HSL:2723292,Hotelli Korpilampi,60.32493,24.72689,"60.32493, 24.72689",C,BUS,70.0,535.0
HSL:4700211,Koivukylän asema,60.324042,25.059355,"60.324042, 25.059355",C,BUS,33.0,476.0
HSL:4700210,Koivukylän asema,60.32347,25.05847,"60.32347, 25.05847",C,BUS,32.0,431.0
HSL:2621220,Riksikallio,60.208709,24.634956,"60.208709, 24.634956",C,BUS,40.0,656.0
HSL:2621221,Riksikallio,60.20858,24.63342,"60.20858, 24.63342",C,BUS,41.0,729.0
HSL:2621222,Nimismiehenpelto,60.21448,24.65221,"60.21448, 24.65221",C,BUS,45.0,1101.0
HSL:9700226,Korpimäentie,60.509151,24.935385,"60.509151, 24.935385",D,BUS,58.0,319.0
HSL:2621238,Rintamäentanhua,60.21599,24.6254,"60.21599, 24.6254",C,BUS,46.0,892.0
HSL:2621239,Rintamäentanhua,60.21535,24.62731,"60.21535, 24.62731",C,BUS,44.0,746.0
HSL:4700209,Koivukylän asema,60.32329,25.0588,"60.32329, 25.0588",C,BUS,31.0,402.0
HSL:9700227,Jäniksenlinna,60.511263,24.927945,"60.511263, 24.927945",D,BUS,56.0,279.0
HSL:9700228,Kuoppamäentie,60.518839,24.925917,"60.518839, 24.925917",D,BUS,57.0,394.0
HSL:9700229,Kuoppamäentie,60.519872,24.925904,"60.519872, 24.925904",D,BUS,55.0,279.0
HSL:2621234,Mustanotko,60.20398,24.62708,"60.20398, 24.62708",C,BUS,50.0,1478.0
HSL:4610205,Vehkapolku,60.29209,25.03887,"60.29209, 25.03887",C,BUS,21.0,506.0
HSL:4610206,Tikkurilan matkakesk,60.29278,25.043604,"60.29278, 25.043604",C,BUS,17.0,191.0
HSL:9610220,Jokelan asema,60.553265,24.969208,"60.553265, 24.969208",D,BUS,44.0,278.0
HSL:2621235,Kulkurinmäki,60.20458,24.62526,"60.20458, 24.62526",C,BUS,51.0,1463.0
HSL:2621236,Lanttikatu,60.20782,24.63026,"60.20782, 24.63026",C,BUS,44.0,923.0
HSL:4610204,Vehkapolku,60.29186,25.04134,"60.29186, 25.04134",C,BUS,19.0,360.0
HSL:4610209,Talvikkitie,60.2969,25.03573,"60.2969, 25.03573",C,BUS,27.0,950.0
HSL:4700202,Pyökkikuja,60.31968,25.03908,"60.31968, 25.03908",C,BUS,38.0,864.0
HSL:4700201,Pyökkikuja,60.3203,25.03941,"60.3203, 25.03941",C,BUS,37.0,810.0
HSL:9700220,Ihantolantie,60.462909,24.81114,"60.462909, 24.81114",Ei HSL,BUS,72.0,221.0
HSL:4610207,Tikkurilan matkakesk,60.293416,25.04354,"60.293416, 25.04354",C,BUS,17.0,245.0
HSL:1333502,Malminkartano,60.24945,24.861281,"60.24945, 24.861281",B,RAIL,20.0,313.0
HSL:9700221,Råbackantie,60.494185,24.962664,"60.494185, 24.962664",D,BUS,59.0,279.0
HSL:9700222,Råbackantie,60.493805,24.962848,"60.493805, 24.962848",D,BUS,60.0,321.0
HSL:9700223,Solbackantie,60.504541,24.951419,"60.504541, 24.951419",D,BUS,58.0,285.0
HSL:9700224,Solbackantie,60.504214,24.951878,"60.504214, 24.951878",D,BUS,59.0,329.0
HSL:9700225,Korpimäentie,60.50914,24.936213,"60.50914, 24.936213",D,BUS,57.0,279.0
HSL:4700207,Saarnitie,60.3246,25.05219,"60.3246, 25.05219",C,BUS,37.0,811.0
HSL:5020502,Mäntsälä,60.647434,25.307804,"60.647434, 25.307804",Ei HSL,RAIL,42.0,114.0
HSL:5020503,Lahti,60.976337,25.657594,"60.976337, 25.657594",Ei HSL,RAIL,66.0,115.0
HSL:5020501,Haarajoki,60.496774,25.133833,"60.496774, 25.133833",D,RAIL,32.0,114.0
HSL:2621230,Kulkurinmäki,60.20473,24.62518,"60.20473, 24.62518",C,BUS,51.0,1447.0
HSL:2621231,Vanha Muuralantie,60.21626,24.63137,"60.21626, 24.63137",C,BUS,41.0,491.0
HSL:2621232,Veijarinkallio,60.20336,24.62896,"60.20336, 24.62896",C,BUS,49.0,1367.0
HSL:2621233,Mustanotko,60.20401,24.62729,"60.20401, 24.62729",C,BUS,51.0,1483.0
HSL:4520271,Rälssipuisto,60.294008,24.970434,"60.294008, 24.970434",C,BUS,43.0,326.0
HSL:4520272,Perintökuja,60.294892,24.96802,"60.294892, 24.96802",C,BUS,43.0,878.0
HSL:4520273,Perintökuja,60.294858,24.968049,"60.294858, 24.968049",C,BUS,43.0,874.0
HSL:2441204,Kaitaan koulu,60.149311,24.695355,"60.149311, 24.695355",C,BUS,33.0,619.0
HSL:2441202,Iivisniemenaukio,60.147515,24.69261,"60.147515, 24.69261",C,BUS,34.0,682.0
HSL:2441201,Arttelikuja,60.14573,24.704,"60.14573, 24.704",C,BUS,42.0,1343.0
HSL:2988208,Ullanmäki,60.20723,24.69643,"60.20723, 24.69643",C,BUS,31.0,713.0
HSL:4520278,Rahtitie,60.310294,24.971025,"60.310294, 24.971025",C,BUS,44.0,1102.0
HSL:2441209,Hyljeluodontie,60.155789,24.714964,"60.155789, 24.714964",C,BUS,36.0,888.0
HSL:4520274,Pyhtäänkorvenkuja,60.29788,24.968544,"60.29788, 24.968544",C,BUS,45.0,897.0
HSL:2441208,Arttelikuja,60.14553,24.70323,"60.14553, 24.70323",C,BUS,42.0,1320.0
HSL:2441206,Iivisniemenkatu 1,60.148233,24.691838,"60.148233, 24.691838",C,BUS,32.0,579.0
HSL:2441205,Iivisniemenkatu 2,60.148547,24.691343,"60.148547, 24.691343",C,BUS,32.0,541.0
HSL:4520261,Vantaanportti,60.294891,24.95967,"60.294891, 24.95967",B,BUS,50.0,766.0
HSL:2441214,Peijinkatu,60.152772,24.705127,"60.152772, 24.705127",C,BUS,33.0,666.0
HSL:2441212,Iivisniemenkuja,60.149678,24.691691,"60.149678, 24.691691",C,BUS,29.0,383.0
HSL:2441211,Finnoo (M),60.153167,24.706803,"60.153167, 24.706803",C,BUS,32.0,575.0
HSL:2441210,Finnoo (M),60.154061,24.708343,"60.154061, 24.708343",C,BUS,33.0,653.0
HSL:4520267,Mekaanikontie,60.304895,24.957404,"60.304895, 24.957404",C,BUS,37.0,388.0
HSL:4520268,Mekaanikontie,60.306115,24.958895,"60.306115, 24.958895",C,BUS,41.0,530.0
HSL:4520269,Aviapolis,60.302518,24.955252,"60.302518, 24.955252",C,BUS,41.0,514.0
HSL:4520263,Vantaanportti,60.293311,24.962884,"60.293311, 24.962884",B,BUS,45.0,455.0
HSL:4520265,Aviapolis,60.303237,24.95592,"60.303237, 24.95592",C,BUS,42.0,595.0
HSL:4520266,Aviapolis,60.302738,24.955727,"60.302738, 24.955727",C,BUS,42.0,564.0
HSL:2711203,Snettans,60.29528,24.6864,"60.29528, 24.6864",C,BUS,72.0,904.0
HSL:2711202,Snettans,60.29497,24.6855,"60.29497, 24.6855",C,BUS,73.0,964.0
HSL:4520299,Kytökallio,60.3027,24.9422,"60.3027, 24.9422",C,BUS,49.0,203.0
HSL:2441236,Finnoo (M),60.152163,24.708101,"60.152163, 24.708101",C,BUS,30.0,412.0
HSL:2441235,Finnoo (M),60.152173,24.708176,"60.152173, 24.708176",C,BUS,30.0,411.0
HSL:2113292,Mäkkylän puistotie,60.223525,24.82698,"60.223525, 24.82698",B,BUS,33.0,1526.0
HSL:2113291,Mäkkylän puistotie,60.22373,24.82685,"60.22373, 24.82685",B,BUS,33.0,1533.0
HSL:9228210,Lugnnäsintie,60.374632,25.343212,"60.374632, 25.343212",D,BUS,54.0,256.0
HSL:9228211,Notkotie,60.375512,25.353321,"60.375512, 25.353321",D,BUS,55.0,256.0
HSL:2441240,Rullaniementie,60.14628,24.70725,"60.14628, 24.70725",C,BUS,40.0,1213.0
HSL:1382551,Malmi,60.250924,25.010811,"60.250924, 25.010811",B,RAIL,20.0,449.0
HSL:2441246,Hyljeranta,60.14718,24.71122,"60.14718, 24.71122",C,BUS,37.0,987.0
HSL:2441245,Hyljeranta,60.14724,24.71156,"60.14724, 24.71156",C,BUS,37.0,977.0
HSL:4520238,Toinen savu,60.302153,24.952562,"60.302153, 24.952562",C,BUS,44.0,678.0
HSL:2441244,Hyljeveneentie,60.14461,24.697228,"60.14461, 24.697228",C,BUS,41.0,1168.0
HSL:2441243,Hyljelahti,60.144957,24.70065,"60.144957, 24.70065",C,BUS,41.0,1212.0
HSL:4520239,Veromies,60.301654,24.962252,"60.301654, 24.962252",C,BUS,47.0,928.0
HSL:2441242,Hyljelahti,60.14496,24.69971,"60.14496, 24.69971",C,BUS,41.0,1202.0
HSL:2441241,Rullaniementie,60.14635,24.70844,"60.14635, 24.70844",C,BUS,41.0,1221.0
HSL:1140205,Ooppera,60.182265,24.926924,"60.182265, 24.926924",A,BUS,11.0,339.0
HSL:4520236,Aviapolis,60.303323,24.95617,"60.303323, 24.95617",C,BUS,42.0,610.0
HSL:4520237,Toinen savu,60.302312,24.952512,"60.302312, 24.952512",C,BUS,43.0,656.0
HSL:4520231,Robert Huberin tie,60.300262,24.966312,"60.300262, 24.966312",C,BUS,52.0,1278.0
HSL:4520232,Veromies,60.301669,24.959481,"60.301669, 24.959481",C,BUS,46.0,862.0
HSL:4520233,Veromies,60.302235,24.958971,"60.302235, 24.958971",C,BUS,47.0,888.0
HSL:1370551,Pukinmäki,60.242231,24.993883,"60.242231, 24.993883",B,RAIL,16.0,307.0
HSL:1411501,Puistola,60.27603,25.036679,"60.27603, 25.036679",B,RAIL,22.0,302.0
HSL:4520227,Manttaalitie,60.29665,24.97606,"60.29665, 24.97606",C,BUS,41.0,291.0
HSL:4520228,Virkamies,60.298302,24.95142,"60.298302, 24.95142",C,BUS,43.0,309.0
HSL:4520229,Virkamies,60.298344,24.951336,"60.298344, 24.951336",C,BUS,43.0,311.0
HSL:1140216,Töölön kisahalli,60.18465,24.92313,"60.18465, 24.92313",A,BUS,11.0,331.0
HSL:4520224,Tasetie,60.28919,24.97364,"60.28919, 24.97364",B,BUS,39.0,583.0
HSL:4520220,Äyrikuja,60.297809,24.958069,"60.297809, 24.958069",C,BUS,50.0,769.0
HSL:4520221,Tasetie,60.28833,24.97461,"60.28833, 24.97461",B,BUS,39.0,599.0
HSL:2723210,Lahnuksenmäki,60.321463,24.717534,"60.321463, 24.717534",C,BUS,62.0,945.0
HSL:4520250,Kiitoradantie,60.30383,24.98815,"60.30383, 24.98815",C,BUS,40.0,206.0
HSL:2723211,Lahnuksenmäki,60.32229,24.71755,"60.32229, 24.71755",C,BUS,63.0,1053.0
HSL:6090201,Porkkala,59.987483,24.430405,"59.987483, 24.430405",D,BUS,77.0,498.0
HSL:6090202,Källvikintie,59.9922,24.440759,"59.9922, 24.440759",D,BUS,76.0,504.0
HSL:9216210,Nybacka,60.365821,25.224901,"60.365821, 25.224901",D,BUS,45.0,320.0
HSL:6090205,Grållas,60.009071,24.454008,"60.009071, 24.454008",D,BUS,72.0,519.0
HSL:9216212,Laulas,60.368757,25.23185,"60.368757, 25.23185",D,BUS,47.0,342.0
HSL:6090206,Bölentie,60.01759,24.476402,"60.01759, 24.476402",D,BUS,72.0,669.0
HSL:9216211,Laulas,60.368428,25.230412,"60.368428, 25.230412",D,BUS,45.0,256.0
HSL:6090203,Källvikintie,59.99222,24.439738,"59.99222, 24.439738",D,BUS,77.0,549.0
HSL:9216214,Katajamäentie,60.363368,25.261563,"60.363368, 25.261563",D,BUS,53.0,256.0
HSL:9216213,Katajamäentie,60.363567,25.26105,"60.363567, 25.26105",D,BUS,54.0,287.0
